{"100000":{"city":"北京","district":"北京","province":"北京","lat":"39.904987","lng":"116.40529","cid":"101010100"},"110000":{"city":"北京","district":"北京","province":"北京","lat":"39.904987","lng":"116.40529","cid":"101010100"},"110100":{"city":"北京","district":"北京","province":"北京","lat":"39.904987","lng":"116.40529","cid":"101010100"},"110101":{"city":"北京市","district":"东城区","province":"北京市","lat":"39.917545","lng":"116.418755","cid":"101011600"},"110102":{"city":"北京市","district":"西城区","province":"北京市","lat":"39.91531","lng":"116.36679","cid":"101011700"},"110105":{"city":"北京市","district":"朝阳区","province":"北京市","lat":"39.92149","lng":"116.48641","cid":"101010300"},"110106":{"city":"北京市","district":"丰台区","province":"北京市","lat":"39.863644","lng":"116.286964","cid":"101010900"},"110107":{"city":"北京市","district":"石景山区","province":"北京市","lat":"39.9146","lng":"116.19544","cid":"101011000"},"110108":{"city":"北京市","district":"海淀区","province":"北京市","lat":"39.956074","lng":"116.31032","cid":"101010200"},"110109":{"city":"北京市","district":"门头沟区","province":"北京市","lat":"39.937183","lng":"116.10538","cid":"101011400"},"110111":{"city":"北京市","district":"房山区","province":"北京市","lat":"39.735535","lng":"116.13916","cid":"101011200"},"110112":{"city":"北京市","district":"通州区","province":"北京市","lat":"39.902485","lng":"116.6586","cid":"101010600"},"110113":{"city":"北京市","district":"顺义区","province":"北京市","lat":"40.128937","lng":"116.65353","cid":"101010400"},"110114":{"city":"北京市","district":"昌平区","province":"北京市","lat":"40.218086","lng":"116.23591","cid":"101010700"},"110115":{"city":"北京市","district":"大兴区","province":"北京市","lat":"39.72891","lng":"116.338036","cid":"101011100"},"110116":{"city":"北京市","district":"怀柔区","province":"北京市","lat":"40.324272","lng":"116.63712","cid":"101010500"},"110117":{"city":"北京市","district":"平谷区","province":"北京市","lat":"40.144783","lng":"117.112335","cid":"101011500"},"110118":{"city":"北京市","district":"密云区","province":"北京市","lat":"40.37736","lng":"116.84335","cid":"101011300"},"110119":{"city":"北京市","district":"延庆区","province":"北京市","lat":"40.465324","lng":"115.98501","cid":"101010800"},"120000":{"city":"天津","district":"天津","province":"天津","lat":"39.125595","lng":"117.190186","cid":"101030100"},"120100":{"city":"天津","district":"天津","province":"天津","lat":"39.125595","lng":"117.190186","cid":"101030100"},"120101":{"city":"天津市","district":"和平区","province":"天津市","lat":"39.11833","lng":"117.19591","cid":"101030800"},"120102":{"city":"天津市","district":"河东区","province":"天津市","lat":"39.122124","lng":"117.22657","cid":"101031200"},"120103":{"city":"天津市","district":"河西区","province":"天津市","lat":"39.1019","lng":"117.21754","cid":"101031300"},"120104":{"city":"天津市","district":"南开区","province":"天津市","lat":"39.120476","lng":"117.16415","cid":"101031500"},"120105":{"city":"天津市","district":"河北区","province":"天津市","lat":"39.15663","lng":"117.20157","cid":"101031600"},"120106":{"city":"天津市","district":"红桥区","province":"天津市","lat":"39.175068","lng":"117.1633","cid":"101031700"},"120110":{"city":"天津市","district":"东丽区","province":"天津市","lat":"39.087765","lng":"117.313965","cid":"101030400"},"120111":{"city":"天津市","district":"西青区","province":"天津市","lat":"39.139446","lng":"117.012245","cid":"101030500"},"120112":{"city":"天津市","district":"津南区","province":"天津市","lat":"38.98958","lng":"117.382545","cid":"101031000"},"120113":{"city":"天津市","district":"北辰区","province":"天津市","lat":"39.225555","lng":"117.13482","cid":"101030600"},"120114":{"city":"天津市","district":"武清区","province":"天津市","lat":"39.376926","lng":"117.05796","cid":"101030200"},"120115":{"city":"天津市","district":"宝坻区","province":"天津市","lat":"39.716965","lng":"117.30809","cid":"101030300"},"120116":{"city":"天津市","district":"滨海新区","province":"天津市","lat":"39.032845","lng":"117.654175","cid":"101031100"},"120117":{"city":"天津市","district":"宁河区","province":"天津市","lat":"39.328884","lng":"117.82828","cid":"101030700"},"120118":{"city":"天津市","district":"静海区","province":"天津市","lat":"38.935673","lng":"116.9253","cid":"101030900"},"120119":{"city":"天津市","district":"蓟州区","province":"天津市","lat":"40.04534","lng":"117.40745","cid":"101031400"},"130000":{"city":"石家庄","district":"石家庄","province":"河北","lat":"38.045475","lng":"114.502464","cid":"101090101"},"130100":{"city":"石家庄","district":"石家庄","province":"河北","lat":"38.045475","lng":"114.502464","cid":"101090101"},"130101":{"city":"石家庄","district":"石家庄","province":"河北","lat":"38.045475","lng":"114.502464","cid":"101090101"},"130102":{"city":"石家庄市","district":"长安区","province":"河北省","lat":"38.0475","lng":"114.54815","cid":"101090119"},"130104":{"city":"石家庄市","district":"桥西区","province":"河北省","lat":"38.02838","lng":"114.46293","cid":"101090120"},"130105":{"city":"石家庄市","district":"新华区","province":"河北省","lat":"38.067142","lng":"114.46597","cid":"101090121"},"130107":{"city":"石家庄市","district":"井陉矿区","province":"河北省","lat":"38.069748","lng":"114.05818","cid":"101090122"},"130108":{"city":"石家庄市","district":"裕华区","province":"河北省","lat":"38.027695","lng":"114.53326","cid":"101090123"},"130109":{"city":"石家庄市","district":"藁城区","province":"河北省","lat":"38.033768","lng":"114.84965","cid":"101090115"},"130110":{"city":"石家庄市","district":"鹿泉区","province":"河北省","lat":"38.093994","lng":"114.32102","cid":"101090118"},"130111":{"city":"石家庄市","district":"栾城区","province":"河北省","lat":"37.88691","lng":"114.65428","cid":"101090104"},"130121":{"city":"石家庄市","district":"井陉县","province":"河北省","lat":"38.033615","lng":"114.144485","cid":"101090102"},"130123":{"city":"石家庄市","district":"正定县","province":"河北省","lat":"38.147835","lng":"114.569885","cid":"101090103"},"130125":{"city":"石家庄市","district":"行唐县","province":"河北省","lat":"38.437424","lng":"114.552734","cid":"101090105"},"130126":{"city":"石家庄市","district":"灵寿县","province":"河北省","lat":"38.306545","lng":"114.37946","cid":"101090106"},"130127":{"city":"石家庄市","district":"高邑县","province":"河北省","lat":"37.605713","lng":"114.6107","cid":"101090107"},"130128":{"city":"石家庄市","district":"深泽县","province":"河北省","lat":"38.18454","lng":"115.20021","cid":"101090108"},"130129":{"city":"石家庄市","district":"赞皇县","province":"河北省","lat":"37.6602","lng":"114.38776","cid":"101090109"},"130130":{"city":"石家庄市","district":"无极县","province":"河北省","lat":"38.176376","lng":"114.977844","cid":"101090110"},"130131":{"city":"石家庄市","district":"平山县","province":"河北省","lat":"38.25931","lng":"114.18414","cid":"101090111"},"130132":{"city":"石家庄市","district":"元氏县","province":"河北省","lat":"37.762512","lng":"114.52618","cid":"101090112"},"130133":{"city":"石家庄市","district":"赵县","province":"河北省","lat":"37.75434","lng":"114.77536","cid":"101090113"},"130181":{"city":"石家庄市","district":"辛集市","province":"河北省","lat":"37.92904","lng":"115.21745","cid":"101090114"},"130183":{"city":"石家庄市","district":"晋州市","province":"河北省","lat":"38.027477","lng":"115.04488","cid":"101090116"},"130184":{"city":"石家庄市","district":"新乐市","province":"河北省","lat":"38.34477","lng":"114.68578","cid":"101090117"},"130200":{"city":"唐山","district":"唐山","province":"河北","lat":"39.635113","lng":"118.17539","cid":"101090501"},"130201":{"city":"唐山","district":"唐山","province":"河北","lat":"39.635113","lng":"118.17539","cid":"101090501"},"130202":{"city":"唐山市","district":"路南区","province":"河北省","lat":"39.61516","lng":"118.21082","cid":"101090513"},"130203":{"city":"唐山市","district":"路北区","province":"河北省","lat":"39.628536","lng":"118.174736","cid":"101090514"},"130204":{"city":"唐山市","district":"古冶区","province":"河北省","lat":"39.715736","lng":"118.45429","cid":"101090515"},"130205":{"city":"唐山市","district":"开平区","province":"河北省","lat":"39.67617","lng":"118.26443","cid":"101090516"},"130207":{"city":"唐山市","district":"丰南区","province":"河北省","lat":"39.56303","lng":"118.110794","cid":"101090502"},"130208":{"city":"唐山市","district":"丰润区","province":"河北省","lat":"39.831364","lng":"118.15578","cid":"101090503"},"130209":{"city":"唐山市","district":"曹妃甸区","province":"河北省","lat":"39.27828","lng":"118.44659","cid":"101090509"},"130223":{"city":"唐山","district":"滦县","province":"河北","lat":"39.74485","lng":"118.69955","cid":"101090504"},"130224":{"city":"唐山市","district":"滦南县","province":"河北省","lat":"39.506203","lng":"118.68155","cid":"101090505"},"130225":{"city":"唐山市","district":"乐亭县","province":"河北省","lat":"39.42813","lng":"118.90534","cid":"101090506"},"130227":{"city":"唐山市","district":"迁西县","province":"河北省","lat":"40.146236","lng":"118.30514","cid":"101090507"},"130229":{"city":"唐山市","district":"玉田县","province":"河北省","lat":"39.88732","lng":"117.75366","cid":"101090508"},"130281":{"city":"唐山市","district":"遵化市","province":"河北省","lat":"40.188618","lng":"117.96587","cid":"101090510"},"130283":{"city":"唐山市","district":"迁安市","province":"河北省","lat":"40.012108","lng":"118.701935","cid":"101090511"},"130300":{"city":"秦皇岛","district":"秦皇岛","province":"河北","lat":"39.94253","lng":"119.58658","cid":"101091101"},"130301":{"city":"秦皇岛","district":"秦皇岛","province":"河北","lat":"39.94253","lng":"119.58658","cid":"101091101"},"130302":{"city":"秦皇岛市","district":"海港区","province":"河北省","lat":"39.94346","lng":"119.59622","cid":"101091107"},"130303":{"city":"秦皇岛市","district":"山海关区","province":"河北省","lat":"39.998024","lng":"119.75359","cid":"101091108"},"130304":{"city":"秦皇岛市","district":"北戴河区","province":"河北省","lat":"39.825123","lng":"119.48628","cid":"101091106"},"130306":{"city":"秦皇岛市","district":"抚宁区","province":"河北省","lat":"39.887054","lng":"119.240654","cid":"101091104"},"130321":{"city":"秦皇岛市","district":"青龙满族自治县","province":"河北省","lat":"40.40602","lng":"118.95455","cid":"101091102"},"130322":{"city":"秦皇岛市","district":"昌黎县","province":"河北省","lat":"39.70973","lng":"119.16454","cid":"101091103"},"130324":{"city":"秦皇岛市","district":"卢龙县","province":"河北省","lat":"39.89164","lng":"118.881805","cid":"101091105"},"130400":{"city":"邯郸","district":"邯郸","province":"河北","lat":"36.612274","lng":"114.490685","cid":"101091001"},"130401":{"city":"邯郸","district":"邯郸","province":"河北","lat":"36.612274","lng":"114.490685","cid":"101091001"},"130402":{"city":"邯郸市","district":"邯山区","province":"河北省","lat":"36.603195","lng":"114.484985","cid":"101091017"},"130403":{"city":"邯郸市","district":"丛台区","province":"河北省","lat":"36.61108","lng":"114.494705","cid":"101091018"},"130404":{"city":"邯郸市","district":"复兴区","province":"河北省","lat":"36.615482","lng":"114.458244","cid":"101091019"},"130406":{"city":"邯郸市","district":"峰峰矿区","province":"河北省","lat":"36.420486","lng":"114.20994","cid":"101091002"},"130407":{"city":"邯郸市","district":"肥乡区","province":"河北省","lat":"36.55578","lng":"114.80515","cid":"101091008"},"130408":{"city":"邯郸市","district":"永年区","province":"河北省","lat":"36.776413","lng":"114.49616","cid":"101091009"},"130423":{"city":"邯郸市","district":"临漳县","province":"河北省","lat":"36.337605","lng":"114.6107","cid":"101091003"},"130424":{"city":"邯郸市","district":"成安县","province":"河北省","lat":"36.443832","lng":"114.68036","cid":"101091004"},"130425":{"city":"邯郸市","district":"大名县","province":"河北省","lat":"36.283318","lng":"115.15259","cid":"101091005"},"130426":{"city":"邯郸市","district":"涉县","province":"河北省","lat":"36.563145","lng":"113.673294","cid":"101091006"},"130427":{"city":"邯郸市","district":"磁县","province":"河北省","lat":"36.367672","lng":"114.38208","cid":"101091007"},"130430":{"city":"邯郸市","district":"邱县","province":"河北省","lat":"36.81325","lng":"115.16859","cid":"101091010"},"130431":{"city":"邯郸市","district":"鸡泽县","province":"河北省","lat":"36.91491","lng":"114.87852","cid":"101091011"},"130432":{"city":"邯郸市","district":"广平县","province":"河北省","lat":"36.483604","lng":"114.95086","cid":"101091012"},"130433":{"city":"邯郸市","district":"馆陶县","province":"河北省","lat":"36.53946","lng":"115.289055","cid":"101091013"},"130434":{"city":"邯郸市","district":"魏县","province":"河北省","lat":"36.354248","lng":"114.93411","cid":"101091014"},"130435":{"city":"邯郸市","district":"曲周县","province":"河北省","lat":"36.7734","lng":"114.95759","cid":"101091015"},"130481":{"city":"邯郸市","district":"武安市","province":"河北省","lat":"36.696114","lng":"114.19458","cid":"101091016"},"130500":{"city":"邢台","district":"邢台","province":"河北","lat":"37.05073","lng":"114.561134","cid":"101090901"},"130501":{"city":"邢台","district":"邢台","province":"河北","lat":"37.05073","lng":"114.561134","cid":"101090901"},"130502":{"city":"邢台市","district":"桥东区","province":"河北省","lat":"37.064125","lng":"114.50713","cid":"101090903"},"130503":{"city":"邢台市","district":"桥西区","province":"河北省","lat":"37.06801","lng":"114.47369","cid":"101090919"},"130521":{"city":"邢台","district":"邢台","province":"河北","lat":"37.05073","lng":"114.561134","cid":"101090901"},"130522":{"city":"邢台市","district":"临城县","province":"河北省","lat":"37.444008","lng":"114.506874","cid":"101090902"},"130523":{"city":"邢台市","district":"内丘县","province":"河北省","lat":"37.287663","lng":"114.51152","cid":"101090904"},"130524":{"city":"邢台市","district":"柏乡县","province":"河北省","lat":"37.483597","lng":"114.69338","cid":"101090905"},"130525":{"city":"邢台市","district":"隆尧县","province":"河北省","lat":"37.350925","lng":"114.776344","cid":"101090906"},"130526":{"city":"邢台市","district":"任县","province":"河北省","lat":"37.12995","lng":"114.68447","cid":"101090918"},"130527":{"city":"邢台市","district":"南和县","province":"河北省","lat":"37.00381","lng":"114.691376","cid":"101090907"},"130528":{"city":"邢台市","district":"宁晋县","province":"河北省","lat":"37.618958","lng":"114.92103","cid":"101090908"},"130529":{"city":"邢台市","district":"巨鹿县","province":"河北省","lat":"37.21768","lng":"115.03878","cid":"101090909"},"130530":{"city":"邢台市","district":"新河县","province":"河北省","lat":"37.526215","lng":"115.247536","cid":"101090910"},"130531":{"city":"邢台市","district":"广宗县","province":"河北省","lat":"37.075546","lng":"115.1428","cid":"101090911"},"130532":{"city":"邢台市","district":"平乡县","province":"河北省","lat":"37.069405","lng":"115.02922","cid":"101090912"},"130533":{"city":"邢台市","district":"威县","province":"河北省","lat":"36.983273","lng":"115.27275","cid":"101090913"},"130534":{"city":"邢台市","district":"清河县","province":"河北省","lat":"37.05999","lng":"115.669","cid":"101090914"},"130535":{"city":"邢台市","district":"临西县","province":"河北省","lat":"36.8642","lng":"115.49869","cid":"101090915"},"130581":{"city":"邢台市","district":"南宫市","province":"河北省","lat":"37.35967","lng":"115.3981","cid":"101090916"},"130582":{"city":"邢台市","district":"沙河市","province":"河北省","lat":"36.861904","lng":"114.504906","cid":"101090917"},"130600":{"city":"保定","district":"保定","province":"河北","lat":"38.867657","lng":"115.48233","cid":"101090201"},"130601":{"city":"保定","district":"保定","province":"河北","lat":"38.867657","lng":"115.48233","cid":"101090201"},"130602":{"city":"保定市","district":"竞秀区","province":"河北省","lat":"38.88662","lng":"115.47066","cid":"101090208"},"130606":{"city":"保定市","district":"莲池区","province":"河北省","lat":"38.865005","lng":"115.50093","cid":"101090213"},"130607":{"city":"保定市","district":"满城区","province":"河北省","lat":"38.95138","lng":"115.32442","cid":"101090202"},"130608":{"city":"保定市","district":"清苑区","province":"河北省","lat":"38.77101","lng":"115.49222","cid":"101090224"},"130609":{"city":"保定市","district":"徐水区","province":"河北省","lat":"39.020393","lng":"115.64941","cid":"101090204"},"130623":{"city":"保定市","district":"涞水县","province":"河北省","lat":"39.393147","lng":"115.71198","cid":"101090222"},"130624":{"city":"保定市","district":"阜平县","province":"河北省","lat":"38.847275","lng":"114.1988","cid":"101090203"},"130626":{"city":"保定市","district":"定兴县","province":"河北省","lat":"39.266193","lng":"115.7969","cid":"101090223"},"130627":{"city":"保定市","district":"唐县","province":"河北省","lat":"38.748543","lng":"114.98124","cid":"101090205"},"130628":{"city":"保定市","district":"高阳县","province":"河北省","lat":"38.69009","lng":"115.77888","cid":"101090206"},"130629":{"city":"保定市","district":"容城县","province":"河北省","lat":"39.05282","lng":"115.86625","cid":"101091202"},"130630":{"city":"保定市","district":"涞源县","province":"河北省","lat":"39.35755","lng":"114.692566","cid":"101090209"},"130631":{"city":"保定市","district":"望都县","province":"河北省","lat":"38.707447","lng":"115.15401","cid":"101090210"},"130632":{"city":"保定市","district":"安新县","province":"河北省","lat":"38.929913","lng":"115.93198","cid":"101091203"},"130633":{"city":"保定市","district":"易县","province":"河北省","lat":"39.35297","lng":"115.501144","cid":"101090212"},"130634":{"city":"保定市","district":"曲阳县","province":"河北省","lat":"38.61999","lng":"114.704056","cid":"101090214"},"130635":{"city":"保定市","district":"蠡县","province":"河北省","lat":"38.49643","lng":"115.58363","cid":"101090215"},"130636":{"city":"保定市","district":"顺平县","province":"河北省","lat":"38.845127","lng":"115.13275","cid":"101090216"},"130637":{"city":"保定市","district":"博野县","province":"河北省","lat":"38.45827","lng":"115.4618","cid":"101090225"},"130638":{"city":"保定市","district":"雄县","province":"河北省","lat":"38.990818","lng":"116.107475","cid":"101091204"},"130681":{"city":"保定市","district":"涿州市","province":"河北省","lat":"39.485764","lng":"115.97341","cid":"101090218"},"130682":{"city":"保定市","district":"定州市","province":"河北省","lat":"38.5176","lng":"114.99139","cid":"101090219"},"130683":{"city":"保定市","district":"安国市","province":"河北省","lat":"38.421368","lng":"115.33141","cid":"101090220"},"130684":{"city":"保定市","district":"高碑店市","province":"河北省","lat":"39.32769","lng":"115.882706","cid":"101090221"},"130700":{"city":"张家口","district":"张家口","province":"河北","lat":"40.8119","lng":"114.884094","cid":"101090301"},"130701":{"city":"张家口","district":"张家口","province":"河北","lat":"40.8119","lng":"114.884094","cid":"101090301"},"130702":{"city":"张家口市","district":"桥东区","province":"河北省","lat":"40.813873","lng":"114.88566","cid":"101090315"},"130703":{"city":"张家口市","district":"桥西区","province":"河北省","lat":"40.824387","lng":"114.882126","cid":"101090316"},"130705":{"city":"张家口市","district":"宣化区","province":"河北省","lat":"40.609367","lng":"115.0632","cid":"101090302"},"130706":{"city":"张家口市","district":"下花园区","province":"河北省","lat":"40.488644","lng":"115.281","cid":"101090317"},"130708":{"city":"张家口市","district":"万全区","province":"河北省","lat":"40.765137","lng":"114.73613","cid":"101090310"},"130709":{"city":"张家口市","district":"崇礼区","province":"河北省","lat":"40.971302","lng":"115.281654","cid":"101090314"},"130722":{"city":"张家口市","district":"张北县","province":"河北省","lat":"41.151714","lng":"114.71595","cid":"101090303"},"130723":{"city":"张家口市","district":"康保县","province":"河北省","lat":"41.850044","lng":"114.61581","cid":"101090304"},"130724":{"city":"张家口市","district":"沽源县","province":"河北省","lat":"41.66742","lng":"115.68484","cid":"101090305"},"130725":{"city":"张家口市","district":"尚义县","province":"河北省","lat":"41.08009","lng":"113.977715","cid":"101090306"},"130726":{"city":"张家口市","district":"蔚县","province":"河北省","lat":"39.83718","lng":"114.582695","cid":"101090307"},"130727":{"city":"张家口市","district":"阳原县","province":"河北省","lat":"40.11342","lng":"114.16734","cid":"101090308"},"130728":{"city":"张家口市","district":"怀安县","province":"河北省","lat":"40.671272","lng":"114.42236","cid":"101090309"},"130730":{"city":"张家口市","district":"怀来县","province":"河北省","lat":"40.405403","lng":"115.52084","cid":"101090311"},"130731":{"city":"张家口市","district":"涿鹿县","province":"河北省","lat":"40.3787","lng":"115.219246","cid":"101090312"},"130732":{"city":"张家口市","district":"赤城县","province":"河北省","lat":"40.912083","lng":"115.83271","cid":"101090313"},"130800":{"city":"承德","district":"承德","province":"河北","lat":"40.976204","lng":"117.939156","cid":"101090402"},"130801":{"city":"承德","district":"承德","province":"河北","lat":"40.976204","lng":"117.939156","cid":"101090402"},"130802":{"city":"承德市","district":"双桥区","province":"河北省","lat":"40.976204","lng":"117.939156","cid":"101090401"},"130803":{"city":"承德市","district":"双滦区","province":"河北省","lat":"40.959755","lng":"117.797485","cid":"101090411"},"130804":{"city":"承德市","district":"鹰手营子矿区","province":"河北省","lat":"40.546955","lng":"117.661156","cid":"101090412"},"130821":{"city":"承德市","district":"承德县","province":"河北省","lat":"40.76864","lng":"118.17249","cid":"101090403"},"130822":{"city":"承德市","district":"兴隆县","province":"河北省","lat":"40.418526","lng":"117.507095","cid":"101090404"},"130824":{"city":"承德市","district":"滦平县","province":"河北省","lat":"40.936646","lng":"117.33713","cid":"101090406"},"130825":{"city":"承德市","district":"隆化县","province":"河北省","lat":"41.316666","lng":"117.73634","cid":"101090407"},"130826":{"city":"承德市","district":"丰宁满族自治县","province":"河北省","lat":"41.209904","lng":"116.65121","cid":"101090408"},"130827":{"city":"承德市","district":"宽城满族自治县","province":"河北省","lat":"40.607983","lng":"118.48864","cid":"101090409"},"130828":{"city":"承德市","district":"围场满族蒙古族自治县","province":"河北省","lat":"41.949406","lng":"117.764084","cid":"101090410"},"130881":{"city":"承德市","district":"平泉市","province":"河北省","lat":"41.00561","lng":"118.69024","cid":"101090405"},"130900":{"city":"沧州","district":"沧州","province":"河北","lat":"38.31058","lng":"116.85746","cid":"101090701"},"130901":{"city":"沧州","district":"沧州","province":"河北","lat":"38.31058","lng":"116.85746","cid":"101090701"},"130902":{"city":"沧州市","district":"新华区","province":"河北省","lat":"38.308273","lng":"116.87305","cid":"101090715"},"130903":{"city":"沧州市","district":"运河区","province":"河北省","lat":"38.307404","lng":"116.840065","cid":"101090717"},"130921":{"city":"沧州市","district":"沧县","province":"河北省","lat":"38.219856","lng":"117.00748","cid":"101090716"},"130922":{"city":"沧州市","district":"青县","province":"河北省","lat":"38.569645","lng":"116.83839","cid":"101090702"},"130923":{"city":"沧州市","district":"东光县","province":"河北省","lat":"37.88655","lng":"116.54206","cid":"101090703"},"130924":{"city":"沧州市","district":"海兴县","province":"河北省","lat":"38.141582","lng":"117.496605","cid":"101090704"},"130925":{"city":"沧州市","district":"盐山县","province":"河北省","lat":"38.05614","lng":"117.22981","cid":"101090705"},"130926":{"city":"沧州市","district":"肃宁县","province":"河北省","lat":"38.4271","lng":"115.83585","cid":"101090706"},"130927":{"city":"沧州市","district":"南皮县","province":"河北省","lat":"38.04244","lng":"116.70917","cid":"101090707"},"130928":{"city":"沧州市","district":"吴桥县","province":"河北省","lat":"37.62818","lng":"116.39151","cid":"101090708"},"130929":{"city":"沧州市","district":"献县","province":"河北省","lat":"38.18966","lng":"116.12384","cid":"101090709"},"130930":{"city":"沧州市","district":"孟村回族自治县","province":"河北省","lat":"38.057953","lng":"117.1051","cid":"101090710"},"130981":{"city":"沧州市","district":"泊头市","province":"河北省","lat":"38.07348","lng":"116.57016","cid":"101090711"},"130982":{"city":"沧州市","district":"任丘市","province":"河北省","lat":"38.706512","lng":"116.106766","cid":"101090712"},"130983":{"city":"沧州市","district":"黄骅市","province":"河北省","lat":"38.36924","lng":"117.3438","cid":"101090713"},"130984":{"city":"沧州市","district":"河间市","province":"河北省","lat":"38.44149","lng":"116.089455","cid":"101090714"},"131000":{"city":"廊坊","district":"廊坊","province":"河北","lat":"39.523926","lng":"116.70444","cid":"101090601"},"131001":{"city":"廊坊","district":"廊坊","province":"河北","lat":"39.523926","lng":"116.70444","cid":"101090601"},"131002":{"city":"廊坊市","district":"安次区","province":"河北省","lat":"39.502567","lng":"116.69454","cid":"101090610"},"131003":{"city":"廊坊市","district":"广阳区","province":"河北省","lat":"39.52193","lng":"116.71371","cid":"101090611"},"131022":{"city":"廊坊市","district":"固安县","province":"河北省","lat":"39.436466","lng":"116.2999","cid":"101090602"},"131023":{"city":"廊坊市","district":"永清县","province":"河北省","lat":"39.319717","lng":"116.49809","cid":"101090603"},"131024":{"city":"廊坊市","district":"香河县","province":"河北省","lat":"39.757214","lng":"117.007164","cid":"101090604"},"131025":{"city":"廊坊市","district":"大城县","province":"河北省","lat":"38.699215","lng":"116.64073","cid":"101090605"},"131026":{"city":"廊坊市","district":"文安县","province":"河北省","lat":"38.866802","lng":"116.460106","cid":"101090606"},"131028":{"city":"廊坊市","district":"大厂回族自治县","province":"河北省","lat":"39.889267","lng":"116.9865","cid":"101090607"},"131081":{"city":"廊坊市","district":"霸州市","province":"河北省","lat":"39.117332","lng":"116.39202","cid":"101090608"},"131082":{"city":"廊坊市","district":"三河市","province":"河北省","lat":"39.982777","lng":"117.07702","cid":"101090609"},"131100":{"city":"衡水","district":"衡水","province":"河北","lat":"37.735096","lng":"115.66599","cid":"101090801"},"131101":{"city":"衡水","district":"衡水","province":"河北","lat":"37.735096","lng":"115.66599","cid":"101090801"},"131102":{"city":"衡水市","district":"桃城区","province":"河北省","lat":"37.73224","lng":"115.69495","cid":"101090812"},"131103":{"city":"衡水市","district":"冀州区","province":"河北省","lat":"37.54279","lng":"115.57917","cid":"101090810"},"131121":{"city":"衡水市","district":"枣强县","province":"河北省","lat":"37.511513","lng":"115.7265","cid":"101090802"},"131122":{"city":"衡水市","district":"武邑县","province":"河北省","lat":"37.803776","lng":"115.89242","cid":"101090803"},"131123":{"city":"衡水市","district":"武强县","province":"河北省","lat":"38.03698","lng":"115.97024","cid":"101090804"},"131124":{"city":"衡水市","district":"饶阳县","province":"河北省","lat":"38.23267","lng":"115.72658","cid":"101090805"},"131125":{"city":"衡水市","district":"安平县","province":"河北省","lat":"38.233513","lng":"115.51963","cid":"101090806"},"131126":{"city":"衡水市","district":"故城县","province":"河北省","lat":"37.350983","lng":"115.96674","cid":"101090807"},"131127":{"city":"衡水市","district":"景县","province":"河北省","lat":"37.686623","lng":"116.258446","cid":"101090808"},"131128":{"city":"衡水市","district":"阜城县","province":"河北省","lat":"37.869946","lng":"116.16473","cid":"101090809"},"131182":{"city":"衡水市","district":"深州市","province":"河北省","lat":"38.00347","lng":"115.554596","cid":"101090811"},"140000":{"city":"太原","district":"太原","province":"山西","lat":"37.857014","lng":"112.54925","cid":"101100101"},"140100":{"city":"太原","district":"太原","province":"山西","lat":"37.857014","lng":"112.54925","cid":"101100101"},"140101":{"city":"太原","district":"太原","province":"山西","lat":"37.857014","lng":"112.54925","cid":"101100101"},"140105":{"city":"太原市","district":"小店区","province":"山西省","lat":"37.817974","lng":"112.56427","cid":"101100107"},"140106":{"city":"太原市","district":"迎泽区","province":"山西省","lat":"37.855804","lng":"112.55885","cid":"101100108"},"140107":{"city":"太原市","district":"杏花岭区","province":"山西省","lat":"37.87929","lng":"112.560745","cid":"101100109"},"140108":{"city":"太原市","district":"尖草坪区","province":"山西省","lat":"37.93989","lng":"112.48712","cid":"101100106"},"140109":{"city":"太原市","district":"万柏林区","province":"山西省","lat":"37.86265","lng":"112.522255","cid":"101100110"},"140110":{"city":"太原市","district":"晋源区","province":"山西省","lat":"37.71562","lng":"112.47785","cid":"101100111"},"140121":{"city":"太原市","district":"清徐县","province":"山西省","lat":"37.60729","lng":"112.35796","cid":"101100102"},"140122":{"city":"太原市","district":"阳曲县","province":"山西省","lat":"38.058796","lng":"112.67382","cid":"101100103"},"140123":{"city":"太原市","district":"娄烦县","province":"山西省","lat":"38.066036","lng":"111.7938","cid":"101100104"},"140181":{"city":"太原市","district":"古交市","province":"山西省","lat":"37.908535","lng":"112.174355","cid":"101100105"},"140200":{"city":"大同","district":"大同","province":"山西","lat":"40.09051","lng":"113.30144","cid":"101100201"},"140201":{"city":"大同","district":"大同","province":"山西","lat":"40.09051","lng":"113.30144","cid":"101100201"},"140202":{"city":"大同","district":"大同","province":"山西","lat":"40.09051","lng":"113.30144","cid":"101100201"},"140203":{"city":"大同","district":"矿区","province":"山西","lat":"40.03626","lng":"113.168655","cid":"101100209"},"140211":{"city":"大同","district":"南郊","province":"山西","lat":"40.01802","lng":"113.16892","cid":"101100210"},"140212":{"city":"大同市","district":"新荣区","province":"山西省","lat":"40.25827","lng":"113.141045","cid":"101100211"},"140221":{"city":"大同市","district":"阳高县","province":"山西省","lat":"40.364925","lng":"113.74987","cid":"101100202"},"140222":{"city":"大同市","district":"天镇县","province":"山西省","lat":"40.421337","lng":"114.09112","cid":"101100204"},"140223":{"city":"大同市","district":"广灵县","province":"山西省","lat":"39.76305","lng":"114.27925","cid":"101100205"},"140224":{"city":"大同市","district":"灵丘县","province":"山西省","lat":"39.438866","lng":"114.23576","cid":"101100206"},"140225":{"city":"大同市","district":"浑源县","province":"山西省","lat":"39.6991","lng":"113.69809","cid":"101100207"},"140226":{"city":"大同市","district":"左云县","province":"山西省","lat":"40.012875","lng":"112.70641","cid":"101100208"},"140227":{"city":"大同","district":"大同县","province":"山西","lat":"40.039345","lng":"113.611305","cid":"101100203"},"140300":{"city":"阳泉","district":"阳泉","province":"山西","lat":"37.861187","lng":"113.58328","cid":"101100301"},"140301":{"city":"阳泉","district":"阳泉","province":"山西","lat":"37.861187","lng":"113.58328","cid":"101100301"},"140302":{"city":"阳泉","district":"阳泉","province":"山西","lat":"37.861187","lng":"113.58328","cid":"101100301"},"140303":{"city":"阳泉市","district":"矿区","province":"山西省","lat":"37.870087","lng":"113.55907","cid":"101100304"},"140311":{"city":"阳泉市","district":"郊区","province":"山西省","lat":"37.94096","lng":"113.58664","cid":"101100305"},"140321":{"city":"阳泉市","district":"平定县","province":"山西省","lat":"37.80029","lng":"113.63105","cid":"101100303"},"140322":{"city":"阳泉市","district":"盂县","province":"山西省","lat":"38.086132","lng":"113.41223","cid":"101100302"},"140400":{"city":"长治","district":"长治","province":"山西","lat":"36.191113","lng":"113.113556","cid":"101100501"},"140401":{"city":"长治","district":"长治","province":"山西","lat":"36.191113","lng":"113.113556","cid":"101100501"},"140402":{"city":"长治","district":"长治","province":"山西","lat":"36.191113","lng":"113.113556","cid":"101100501"},"140411":{"city":"长治","district":"郊区","province":"山西","lat":"36.218388","lng":"113.10121","cid":"101100512"},"140421":{"city":"长治","district":"长治","province":"山西","lat":"36.191113","lng":"113.113556","cid":"101100501"},"140423":{"city":"长治市","district":"襄垣县","province":"山西省","lat":"36.532852","lng":"113.050095","cid":"101100505"},"140424":{"city":"长治","district":"屯留","province":"山西","lat":"36.31407","lng":"112.89274","cid":"101100503"},"140425":{"city":"长治市","district":"平顺县","province":"山西省","lat":"36.200203","lng":"113.43879","cid":"101100506"},"140426":{"city":"长治市","district":"黎城县","province":"山西省","lat":"36.50297","lng":"113.38737","cid":"101100502"},"140427":{"city":"长治市","district":"壶关县","province":"山西省","lat":"36.11094","lng":"113.20614","cid":"101100511"},"140428":{"city":"长治市","district":"长子县","province":"山西省","lat":"36.119484","lng":"112.88466","cid":"101100509"},"140429":{"city":"长治市","district":"武乡县","province":"山西省","lat":"36.834316","lng":"112.8653","cid":"101100507"},"140430":{"city":"长治市","district":"沁县","province":"山西省","lat":"36.757122","lng":"112.70138","cid":"101100508"},"140431":{"city":"长治市","district":"沁源县","province":"山西省","lat":"36.50078","lng":"112.34088","cid":"101100510"},"140481":{"city":"长治","district":"潞城","province":"山西","lat":"36.332233","lng":"113.22324","cid":"101100504"},"140500":{"city":"晋城","district":"晋城","province":"山西","lat":"35.497555","lng":"112.85127","cid":"101100601"},"140501":{"city":"晋城","district":"晋城","province":"山西","lat":"35.497555","lng":"112.85127","cid":"101100601"},"140502":{"city":"晋城","district":"晋城","province":"山西","lat":"35.497555","lng":"112.85127","cid":"101100601"},"140521":{"city":"晋城市","district":"沁水县","province":"山西省","lat":"35.689472","lng":"112.18721","cid":"101100602"},"140522":{"city":"晋城市","district":"阳城县","province":"山西省","lat":"35.482178","lng":"112.42201","cid":"101100603"},"140524":{"city":"晋城市","district":"陵川县","province":"山西省","lat":"35.775616","lng":"113.27888","cid":"101100604"},"140525":{"city":"晋城市","district":"泽州县","province":"山西省","lat":"35.61722","lng":"112.89914","cid":"101100606"},"140581":{"city":"晋城市","district":"高平市","province":"山西省","lat":"35.791355","lng":"112.930695","cid":"101100605"},"140600":{"city":"朔州","district":"朔州","province":"山西","lat":"39.33126","lng":"112.43339","cid":"101100901"},"140601":{"city":"朔州","district":"朔州","province":"山西","lat":"39.33126","lng":"112.43339","cid":"101100901"},"140602":{"city":"朔州市","district":"朔城区","province":"山西省","lat":"39.324524","lng":"112.42867","cid":"101100907"},"140603":{"city":"朔州市","district":"平鲁区","province":"山西省","lat":"39.515602","lng":"112.29523","cid":"101100902"},"140621":{"city":"朔州市","district":"山阴县","province":"山西省","lat":"39.52677","lng":"112.8164","cid":"101100903"},"140622":{"city":"朔州市","district":"应县","province":"山西省","lat":"39.55919","lng":"113.18751","cid":"101100905"},"140623":{"city":"朔州市","district":"右玉县","province":"山西省","lat":"39.98881","lng":"112.46559","cid":"101100904"},"140624":{"city":"朔州","district":"怀仁","province":"山西","lat":"39.82079","lng":"113.10051","cid":"101100906"},"140700":{"city":"晋中","district":"晋中","province":"山西","lat":"37.696495","lng":"112.736465","cid":"101100401"},"140701":{"city":"晋中","district":"晋中","province":"山西","lat":"37.696495","lng":"112.736465","cid":"101100401"},"140702":{"city":"晋中市","district":"榆次区","province":"山西省","lat":"37.6976","lng":"112.74006","cid":"101100402"},"140721":{"city":"晋中市","district":"榆社县","province":"山西省","lat":"37.06902","lng":"112.97352","cid":"101100403"},"140722":{"city":"晋中市","district":"左权县","province":"山西省","lat":"37.079674","lng":"113.37783","cid":"101100404"},"140723":{"city":"晋中市","district":"和顺县","province":"山西省","lat":"37.327026","lng":"113.57292","cid":"101100405"},"140724":{"city":"晋中市","district":"昔阳县","province":"山西省","lat":"37.60437","lng":"113.70617","cid":"101100406"},"140725":{"city":"晋中市","district":"寿阳县","province":"山西省","lat":"37.891136","lng":"113.17771","cid":"101100407"},"140726":{"city":"晋中市","district":"太谷区","province":"山西省","lat":"37.424595","lng":"112.5541","cid":"101100408"},"140727":{"city":"晋中市","district":"祁县","province":"山西省","lat":"37.358738","lng":"112.33053","cid":"101100409"},"140728":{"city":"晋中市","district":"平遥县","province":"山西省","lat":"37.195473","lng":"112.17406","cid":"101100410"},"140729":{"city":"晋中市","district":"灵石县","province":"山西省","lat":"36.84747","lng":"111.77276","cid":"101100411"},"140781":{"city":"晋中市","district":"介休市","province":"山西省","lat":"37.027615","lng":"111.91386","cid":"101100412"},"140800":{"city":"运城","district":"运城","province":"山西","lat":"35.022778","lng":"111.00396","cid":"101100801"},"140801":{"city":"运城","district":"运城","province":"山西","lat":"35.022778","lng":"111.00396","cid":"101100801"},"140802":{"city":"运城市","district":"盐湖区","province":"山西省","lat":"35.025642","lng":"111.000626","cid":"101100814"},"140821":{"city":"运城市","district":"临猗县","province":"山西省","lat":"35.141884","lng":"110.77493","cid":"101100802"},"140822":{"city":"运城市","district":"万荣县","province":"山西省","lat":"35.41704","lng":"110.84356","cid":"101100804"},"140823":{"city":"运城市","district":"闻喜县","province":"山西省","lat":"35.35384","lng":"111.22031","cid":"101100808"},"140824":{"city":"运城市","district":"稷山县","province":"山西省","lat":"35.60041","lng":"110.979","cid":"101100803"},"140825":{"city":"运城市","district":"新绛县","province":"山西省","lat":"35.613697","lng":"111.225204","cid":"101100806"},"140826":{"city":"运城市","district":"绛县","province":"山西省","lat":"35.49045","lng":"111.57618","cid":"101100807"},"140827":{"city":"运城市","district":"垣曲县","province":"山西省","lat":"35.298294","lng":"111.67099","cid":"101100809"},"140828":{"city":"运城市","district":"夏县","province":"山西省","lat":"35.14044","lng":"111.223175","cid":"101100812"},"140829":{"city":"运城市","district":"平陆县","province":"山西省","lat":"34.837257","lng":"111.21238","cid":"101100813"},"140830":{"city":"运城市","district":"芮城县","province":"山西省","lat":"34.69477","lng":"110.69114","cid":"101100811"},"140881":{"city":"运城市","district":"永济市","province":"山西省","lat":"34.865124","lng":"110.44798","cid":"101100810"},"140882":{"city":"运城市","district":"河津市","province":"山西省","lat":"35.59715","lng":"110.710266","cid":"101100805"},"140900":{"city":"忻州","district":"忻州","province":"山西","lat":"38.41769","lng":"112.733536","cid":"101101001"},"140901":{"city":"忻州","district":"忻州","province":"山西","lat":"38.41769","lng":"112.733536","cid":"101101001"},"140902":{"city":"忻州市","district":"忻府区","province":"山西省","lat":"38.417744","lng":"112.734116","cid":"101101016"},"140921":{"city":"忻州市","district":"定襄县","province":"山西省","lat":"38.484947","lng":"112.963234","cid":"101101002"},"140922":{"city":"忻州市","district":"五台县","province":"山西省","lat":"38.96864","lng":"113.59073","cid":"101101010"},"140923":{"city":"忻州市","district":"代县","province":"山西省","lat":"39.06514","lng":"112.96252","cid":"101101008"},"140924":{"city":"忻州市","district":"繁峙县","province":"山西省","lat":"39.188103","lng":"113.26771","cid":"101101009"},"140925":{"city":"忻州市","district":"宁武县","province":"山西省","lat":"39.001717","lng":"112.30794","cid":"101101007"},"140926":{"city":"忻州市","district":"静乐县","province":"山西省","lat":"38.355946","lng":"111.94023","cid":"101101012"},"140927":{"city":"忻州市","district":"神池县","province":"山西省","lat":"39.088467","lng":"112.20044","cid":"101101006"},"140928":{"city":"忻州市","district":"五寨县","province":"山西省","lat":"38.91276","lng":"111.84102","cid":"101101014"},"140929":{"city":"忻州市","district":"岢岚县","province":"山西省","lat":"38.705624","lng":"111.56981","cid":"101101013"},"140930":{"city":"忻州市","district":"河曲县","province":"山西省","lat":"39.381893","lng":"111.14661","cid":"101101004"},"140931":{"city":"忻州市","district":"保德县","province":"山西省","lat":"39.022575","lng":"111.085686","cid":"101101011"},"140932":{"city":"忻州市","district":"偏关县","province":"山西省","lat":"39.442154","lng":"111.50048","cid":"101101005"},"140981":{"city":"忻州市","district":"原平市","province":"山西省","lat":"38.729187","lng":"112.713135","cid":"101101015"},"141000":{"city":"临汾","district":"临汾","province":"山西","lat":"36.08415","lng":"111.517975","cid":"101100701"},"141001":{"city":"临汾","district":"临汾","province":"山西","lat":"36.08415","lng":"111.517975","cid":"101100701"},"141002":{"city":"临汾市","district":"尧都区","province":"山西省","lat":"36.080364","lng":"111.52294","cid":"101100718"},"141021":{"city":"临汾市","district":"曲沃县","province":"山西省","lat":"35.641388","lng":"111.47553","cid":"101100702"},"141022":{"city":"临汾市","district":"翼城县","province":"山西省","lat":"35.73862","lng":"111.71351","cid":"101100713"},"141023":{"city":"临汾市","district":"襄汾县","province":"山西省","lat":"35.87614","lng":"111.44293","cid":"101100707"},"141024":{"city":"临汾市","district":"洪洞县","province":"山西省","lat":"36.25574","lng":"111.67369","cid":"101100710"},"141025":{"city":"临汾市","district":"古县","province":"山西省","lat":"36.26855","lng":"111.920204","cid":"101100717"},"141026":{"city":"临汾市","district":"安泽县","province":"山西省","lat":"36.14603","lng":"112.25137","cid":"101100716"},"141027":{"city":"临汾市","district":"浮山县","province":"山西省","lat":"35.97136","lng":"111.85004","cid":"101100715"},"141028":{"city":"临汾市","district":"吉县","province":"山西省","lat":"36.099354","lng":"110.68285","cid":"101100706"},"141029":{"city":"临汾市","district":"乡宁县","province":"山西省","lat":"35.975403","lng":"110.85737","cid":"101100712"},"141030":{"city":"临汾市","district":"大宁县","province":"山西省","lat":"36.46383","lng":"110.75128","cid":"101100705"},"141031":{"city":"临汾市","district":"隰县","province":"山西省","lat":"36.692677","lng":"110.93581","cid":"101100704"},"141032":{"city":"临汾市","district":"永和县","province":"山西省","lat":"36.760612","lng":"110.63128","cid":"101100703"},"141033":{"city":"临汾市","district":"蒲县","province":"山西省","lat":"36.411682","lng":"111.09733","cid":"101100708"},"141034":{"city":"临汾市","district":"汾西县","province":"山西省","lat":"36.65337","lng":"111.56302","cid":"101100709"},"141081":{"city":"临汾市","district":"侯马市","province":"山西省","lat":"35.6203","lng":"111.37127","cid":"101100714"},"141082":{"city":"临汾市","district":"霍州市","province":"山西省","lat":"36.57202","lng":"111.72311","cid":"101100711"},"141100":{"city":"吕梁","district":"吕梁","province":"山西","lat":"37.524364","lng":"111.13434","cid":"101101100"},"141101":{"city":"吕梁","district":"吕梁","province":"山西","lat":"37.524364","lng":"111.13434","cid":"101101100"},"141102":{"city":"吕梁市","district":"离石区","province":"山西省","lat":"37.524036","lng":"111.13446","cid":"101101101"},"141121":{"city":"吕梁市","district":"文水县","province":"山西省","lat":"37.436314","lng":"112.03259","cid":"101101112"},"141122":{"city":"吕梁市","district":"交城县","province":"山西省","lat":"37.555157","lng":"112.15916","cid":"101101113"},"141123":{"city":"吕梁市","district":"兴县","province":"山西省","lat":"38.464134","lng":"111.12482","cid":"101101103"},"141124":{"city":"吕梁市","district":"临县","province":"山西省","lat":"37.960808","lng":"110.995964","cid":"101101102"},"141125":{"city":"吕梁市","district":"柳林县","province":"山西省","lat":"37.431664","lng":"110.89613","cid":"101101105"},"141126":{"city":"吕梁市","district":"石楼县","province":"山西省","lat":"36.999428","lng":"110.83712","cid":"101101106"},"141127":{"city":"吕梁市","district":"岚县","province":"山西省","lat":"38.278652","lng":"111.671555","cid":"101101104"},"141128":{"city":"吕梁市","district":"方山县","province":"山西省","lat":"37.89263","lng":"111.238884","cid":"101101107"},"141129":{"city":"吕梁市","district":"中阳县","province":"山西省","lat":"37.342052","lng":"111.19332","cid":"101101109"},"141130":{"city":"吕梁市","district":"交口县","province":"山西省","lat":"36.983067","lng":"111.18319","cid":"101101108"},"141181":{"city":"吕梁市","district":"孝义市","province":"山西省","lat":"37.144474","lng":"111.78157","cid":"101101110"},"141182":{"city":"吕梁市","district":"汾阳市","province":"山西省","lat":"37.267742","lng":"111.78527","cid":"101101111"},"150000":{"city":"呼和浩特","district":"呼和浩特","province":"内蒙古","lat":"40.81831","lng":"111.6708","cid":"101080101"},"150100":{"city":"呼和浩特","district":"呼和浩特","province":"内蒙古","lat":"40.81831","lng":"111.6708","cid":"101080101"},"150101":{"city":"呼和浩特","district":"呼和浩特","province":"内蒙古","lat":"40.81831","lng":"111.6708","cid":"101080101"},"150102":{"city":"呼和浩特市","district":"新城区","province":"内蒙古自治区","lat":"40.826225","lng":"111.68597","cid":"101080108"},"150103":{"city":"呼和浩特市","district":"回民区","province":"内蒙古自治区","lat":"40.815147","lng":"111.66216","cid":"101080109"},"150104":{"city":"呼和浩特市","district":"玉泉区","province":"内蒙古自治区","lat":"40.79942","lng":"111.66543","cid":"101080110"},"150105":{"city":"呼和浩特市","district":"赛罕区","province":"内蒙古自治区","lat":"40.807835","lng":"111.69846","cid":"101080106"},"150121":{"city":"呼和浩特市","district":"土默特左旗","province":"内蒙古自治区","lat":"40.41","lng":"111.09","cid":"101080102"},"150122":{"city":"呼和浩特市","district":"托克托县","province":"内蒙古自治区","lat":"40.16","lng":"111.11","cid":"101080103"},"150123":{"city":"呼和浩特市","district":"和林格尔县","province":"内蒙古自治区","lat":"40.380287","lng":"111.82414","cid":"101080104"},"150124":{"city":"呼和浩特市","district":"清水河县","province":"内蒙古自治区","lat":"39.91248","lng":"111.67222","cid":"101080105"},"150125":{"city":"呼和浩特市","district":"武川县","province":"内蒙古自治区","lat":"41.094482","lng":"111.456566","cid":"101080107"},"150200":{"city":"包头","district":"包头","province":"内蒙古","lat":"40.65817","lng":"109.84041","cid":"101080201"},"150201":{"city":"包头","district":"包头","province":"内蒙古","lat":"40.65817","lng":"109.84041","cid":"101080201"},"150202":{"city":"包头市","district":"东河区","province":"内蒙古自治区","lat":"40.587055","lng":"110.02689","cid":"101080208"},"150203":{"city":"包头市","district":"昆都仑区","province":"内蒙古自治区","lat":"40.661346","lng":"109.82293","cid":"101080209"},"150204":{"city":"包头市","district":"青山区","province":"内蒙古自治区","lat":"40.668556","lng":"109.88005","cid":"101080210"},"150205":{"city":"包头市","district":"石拐区","province":"内蒙古自治区","lat":"40.672092","lng":"110.27257","cid":"101080211"},"150206":{"city":"包头市","district":"白云鄂博矿区","province":"内蒙古自治区","lat":"41.769245","lng":"109.97016","cid":"101080202"},"150207":{"city":"包头市","district":"九原区","province":"内蒙古自治区","lat":"40.600582","lng":"109.968124","cid":"101080212"},"150221":{"city":"包头市","district":"土默特右旗","province":"内蒙古自治区","lat":"40.33","lng":"110.32","cid":"101080204"},"150222":{"city":"包头市","district":"固阳县","province":"内蒙古自治区","lat":"41.030003","lng":"110.06342","cid":"101080205"},"150223":{"city":"包头市","district":"达尔罕茂明安联合旗","province":"内蒙古自治区","lat":"41.32316","lng":"111.23631","cid":"101080207"},"150300":{"city":"乌海","district":"乌海","province":"内蒙古","lat":"39.673733","lng":"106.82556","cid":"101080301"},"150301":{"city":"乌海","district":"乌海","province":"内蒙古","lat":"39.673733","lng":"106.82556","cid":"101080301"},"150302":{"city":"乌海市","district":"海勃湾区","province":"内蒙古自治区","lat":"39.673527","lng":"106.817764","cid":"101080302"},"150303":{"city":"乌海市","district":"海南区","province":"内蒙古自治区","lat":"39.44153","lng":"106.88479","cid":"101080303"},"150304":{"city":"乌海市","district":"乌达区","province":"内蒙古自治区","lat":"39.50229","lng":"106.72271","cid":"101080304"},"150400":{"city":"赤峰","district":"赤峰","province":"内蒙古","lat":"42.27532","lng":"118.9568","cid":"101080601"},"150401":{"city":"赤峰","district":"赤峰","province":"内蒙古","lat":"42.27532","lng":"118.9568","cid":"101080601"},"150402":{"city":"赤峰市","district":"红山区","province":"内蒙古自治区","lat":"42.269733","lng":"118.96109","cid":"101080602"},"150403":{"city":"赤峰市","district":"元宝山区","province":"内蒙古自治区","lat":"42.04117","lng":"119.28988","cid":"101080616"},"150404":{"city":"赤峰市","district":"松山区","province":"内蒙古自治区","lat":"42.281048","lng":"118.93896","cid":"101080617"},"150421":{"city":"赤峰市","district":"阿鲁科尔沁旗","province":"内蒙古自治区","lat":"43.53","lng":"120.03","cid":"101080603"},"150422":{"city":"赤峰市","district":"巴林左旗","province":"内蒙古自治区","lat":"44.452843","lng":"119.29289","cid":"101080618"},"150423":{"city":"赤峰市","district":"巴林右旗","province":"内蒙古自治区","lat":"43.52896","lng":"118.678345","cid":"101080606"},"150424":{"city":"赤峰市","district":"林西县","province":"内蒙古自治区","lat":"43.605328","lng":"118.05775","cid":"101080607"},"150425":{"city":"赤峰市","district":"克什克腾旗","province":"内蒙古自治区","lat":"43.256233","lng":"117.542465","cid":"101080608"},"150426":{"city":"赤峰市","district":"翁牛特旗","province":"内蒙古自治区","lat":"42.937126","lng":"119.02262","cid":"101080609"},"150428":{"city":"赤峰市","district":"喀喇沁旗","province":"内蒙古自治区","lat":"41.92778","lng":"118.70857","cid":"101080611"},"150429":{"city":"赤峰市","district":"宁城县","province":"内蒙古自治区","lat":"41.598694","lng":"119.33924","cid":"101080613"},"150430":{"city":"赤峰市","district":"敖汉旗","province":"内蒙古自治区","lat":"42.32052","lng":"120.69266","cid":"101080619"},"150500":{"city":"通辽","district":"通辽","province":"内蒙古","lat":"43.617428","lng":"122.26312","cid":"101080501"},"150501":{"city":"通辽","district":"通辽","province":"内蒙古","lat":"43.617428","lng":"122.26312","cid":"101080501"},"150502":{"city":"通辽市","district":"科尔沁区","province":"内蒙古自治区","lat":"45.059647","lng":"121.47282","cid":"101080510"},"150521":{"city":"通辽市","district":"科尔沁左翼中旗","province":"内蒙古自治区","lat":"44.08","lng":"123.18","cid":"101080503"},"150522":{"city":"通辽市","district":"科尔沁左翼后旗","province":"内蒙古自治区","lat":"42.58","lng":"122.21","cid":"101080504"},"150523":{"city":"通辽市","district":"开鲁县","province":"内蒙古自治区","lat":"43.602432","lng":"121.3088","cid":"101080506"},"150524":{"city":"通辽市","district":"库伦旗","province":"内蒙古自治区","lat":"42.73469","lng":"121.77489","cid":"101080507"},"150525":{"city":"通辽市","district":"奈曼旗","province":"内蒙古自治区","lat":"42.84685","lng":"120.662544","cid":"101080508"},"150526":{"city":"通辽市","district":"扎鲁特旗","province":"内蒙古自治区","lat":"45.069443","lng":"120.33295","cid":"101080511"},"150581":{"city":"通辽市","district":"霍林郭勒市","province":"内蒙古自治区","lat":"45.53236","lng":"119.65786","cid":"101080512"},"150600":{"city":"鄂尔多斯","district":"鄂尔多斯","province":"内蒙古","lat":"39.81718","lng":"109.99029","cid":"101080701"},"150601":{"city":"鄂尔多斯","district":"鄂尔多斯","province":"内蒙古","lat":"39.81718","lng":"109.99029","cid":"101080701"},"150602":{"city":"鄂尔多斯市","district":"东胜区","province":"内蒙古自治区","lat":"39.81788","lng":"109.98945","cid":"101080713"},"150603":{"city":"鄂尔多斯市","district":"康巴什区","province":"内蒙古自治区","lat":"39.608303","lng":"109.781555","cid":"101080714"},"150621":{"city":"鄂尔多斯市","district":"达拉特旗","province":"内蒙古自治区","lat":"40.404076","lng":"110.04028","cid":"101080703"},"150622":{"city":"鄂尔多斯市","district":"准格尔旗","province":"内蒙古自治区","lat":"39.86522","lng":"111.238335","cid":"101080704"},"150623":{"city":"鄂尔多斯市","district":"鄂托克前旗","province":"内蒙古自治区","lat":"38.11","lng":"107.29","cid":"101080705"},"150624":{"city":"鄂尔多斯市","district":"鄂托克旗","province":"内蒙古自治区","lat":"39.095753","lng":"107.982605","cid":"101080708"},"150625":{"city":"鄂尔多斯市","district":"杭锦旗","province":"内蒙古自治区","lat":"39.831787","lng":"108.73632","cid":"101080709"},"150626":{"city":"鄂尔多斯市","district":"乌审旗","province":"内蒙古自治区","lat":"39.219353","lng":"109.016396","cid":"101080712"},"150627":{"city":"鄂尔多斯市","district":"伊金霍洛旗","province":"内蒙古自治区","lat":"39.604313","lng":"109.7874","cid":"101080711"},"150700":{"city":"呼伦贝尔","district":"呼伦贝尔","province":"内蒙古","lat":"49.215332","lng":"119.75817","cid":"101081013"},"150701":{"city":"呼伦贝尔","district":"呼伦贝尔","province":"内蒙古","lat":"49.215332","lng":"119.75817","cid":"101081013"},"150702":{"city":"呼伦贝尔市","district":"海拉尔区","province":"内蒙古自治区","lat":"49.21389","lng":"119.76492","cid":"101081001"},"150703":{"city":"呼伦贝尔市","district":"扎赉诺尔区","province":"内蒙古自治区","lat":"49.456566","lng":"117.71637","cid":"101081017"},"150721":{"city":"呼伦贝尔市","district":"阿荣旗","province":"内蒙古自治区","lat":"48.130505","lng":"123.464615","cid":"101081003"},"150722":{"city":"呼伦贝尔市","district":"莫力达瓦达斡尔族自治旗","province":"内蒙古自治区","lat":"48.478386","lng":"124.5074","cid":"101081004"},"150723":{"city":"呼伦贝尔市","district":"鄂伦春自治旗","province":"内蒙古自治区","lat":"50.35","lng":"123.44","cid":"101081005"},"150724":{"city":"呼伦贝尔市","district":"鄂温克族自治旗","province":"内蒙古自治区","lat":"49.09","lng":"119.45","cid":"101081006"},"150725":{"city":"呼伦贝尔市","district":"陈巴尔虎旗","province":"内蒙古自治区","lat":"49.19","lng":"119.26","cid":"101081007"},"150726":{"city":"呼伦贝尔市","district":"新巴尔虎左旗","province":"内蒙古自治区","lat":"48.13","lng":"118.16","cid":"101081008"},"150727":{"city":"呼伦贝尔市","district":"新巴尔虎右旗","province":"内蒙古自治区","lat":"48.4","lng":"116.49","cid":"101081009"},"150781":{"city":"呼伦贝尔市","district":"满洲里市","province":"内蒙古自治区","lat":"49.59079","lng":"117.45556","cid":"101081010"},"150782":{"city":"呼伦贝尔市","district":"牙克石市","province":"内蒙古自治区","lat":"50.480488","lng":"121.682495","cid":"101081016"},"150783":{"city":"呼伦贝尔市","district":"扎兰屯市","province":"内蒙古自治区","lat":"48.007412","lng":"122.7444","cid":"101081012"},"150784":{"city":"呼伦贝尔市","district":"额尔古纳市","province":"内蒙古自治区","lat":"50.2439","lng":"120.178635","cid":"101081014"},"150785":{"city":"呼伦贝尔市","district":"根河市","province":"内蒙古自治区","lat":"50.780453","lng":"121.53272","cid":"101081015"},"150800":{"city":"巴彦淖尔","district":"巴彦淖尔","province":"内蒙古","lat":"40.7574","lng":"107.41696","cid":"101080811"},"150801":{"city":"巴彦淖尔","district":"巴彦淖尔","province":"内蒙古","lat":"40.7574","lng":"107.41696","cid":"101080811"},"150802":{"city":"巴彦淖尔市","district":"临河区","province":"内蒙古自治区","lat":"40.75709","lng":"107.417015","cid":"101080801"},"150821":{"city":"巴彦淖尔市","district":"五原县","province":"内蒙古自治区","lat":"41.097637","lng":"108.27066","cid":"101080802"},"150822":{"city":"巴彦淖尔市","district":"磴口县","province":"内蒙古自治区","lat":"40.33048","lng":"107.00606","cid":"101080803"},"150823":{"city":"巴彦淖尔市","district":"乌拉特前旗","province":"内蒙古自治区","lat":"41.02305","lng":"109.1458","cid":"101080805"},"150824":{"city":"巴彦淖尔市","district":"乌拉特中旗","province":"内蒙古自治区","lat":"41.34","lng":"108.31","cid":"101080806"},"150825":{"city":"巴彦淖尔市","district":"乌拉特后旗","province":"内蒙古自治区","lat":"41.14622","lng":"106.45576","cid":"101080809"},"150826":{"city":"巴彦淖尔市","district":"杭锦后旗","province":"内蒙古自治区","lat":"40.888798","lng":"107.14768","cid":"101080810"},"150900":{"city":"乌兰察布","district":"乌兰察布","province":"内蒙古","lat":"41.034126","lng":"113.11454","cid":"101080405"},"150901":{"city":"乌兰察布","district":"乌兰察布","province":"内蒙古","lat":"41.034126","lng":"113.11454","cid":"101080405"},"150902":{"city":"乌兰察布市","district":"集宁区","province":"内蒙古自治区","lat":"41.034134","lng":"113.116455","cid":"101080401"},"150921":{"city":"乌兰察布市","district":"卓资县","province":"内蒙古自治区","lat":"40.89576","lng":"112.577705","cid":"101080402"},"150922":{"city":"乌兰察布市","district":"化德县","province":"内蒙古自治区","lat":"41.899334","lng":"114.01008","cid":"101080403"},"150923":{"city":"乌兰察布市","district":"商都县","province":"内蒙古自治区","lat":"41.56016","lng":"113.560646","cid":"101080404"},"150924":{"city":"乌兰察布市","district":"兴和县","province":"内蒙古自治区","lat":"40.872437","lng":"113.83401","cid":"101080406"},"150925":{"city":"乌兰察布市","district":"凉城县","province":"内蒙古自治区","lat":"40.531628","lng":"112.50091","cid":"101080407"},"150926":{"city":"乌兰察布市","district":"察哈尔右翼前旗","province":"内蒙古自治区","lat":"40.48","lng":"113.13","cid":"101080408"},"150927":{"city":"乌兰察布市","district":"察哈尔右翼中旗","province":"内蒙古自治区","lat":"41.16","lng":"112.37","cid":"101080409"},"150928":{"city":"乌兰察布市","district":"察哈尔右翼后旗","province":"内蒙古自治区","lat":"41.27","lng":"113.11","cid":"101080410"},"150929":{"city":"乌兰察布市","district":"四子王旗","province":"内蒙古自治区","lat":"41.528114","lng":"111.70123","cid":"101080411"},"150981":{"city":"乌兰察布市","district":"丰镇市","province":"内蒙古自治区","lat":"40.437534","lng":"113.16346","cid":"101080412"},"152200":{"city":"兴安盟","district":"兴安盟","province":"内蒙古","lat":"46.076267","lng":"122.07032","cid":"101081108"},"152201":{"city":"兴安盟","district":"乌兰浩特市","province":"内蒙古自治区","lat":"46.077236","lng":"122.06898","cid":"101081101"},"152202":{"city":"兴安盟","district":"阿尔山市","province":"内蒙古自治区","lat":"47.177","lng":"119.94366","cid":"101081102"},"152221":{"city":"兴安盟","district":"科尔沁右翼前旗","province":"内蒙古自治区","lat":"46.063","lng":"122.069","cid":"101081109"},"152222":{"city":"兴安盟","district":"科尔沁右翼中旗","province":"内蒙古自治区","lat":"44.794903","lng":"121.62372","cid":"101081110"},"152223":{"city":"兴安盟","district":"扎赉特旗","province":"内蒙古自治区","lat":"46.725136","lng":"122.90933","cid":"101081105"},"152224":{"city":"兴安盟","district":"突泉县","province":"内蒙古自治区","lat":"45.380985","lng":"121.56486","cid":"101081107"},"152500":{"city":"锡林郭勒","district":"锡林郭勒","province":"内蒙古","lat":"43.94402","lng":"116.090996","cid":"101080902"},"152501":{"city":"锡林郭勒盟","district":"二连浩特市","province":"内蒙古自治区","lat":"43.652897","lng":"111.97981","cid":"101080903"},"152502":{"city":"锡林郭勒盟","district":"锡林浩特市","province":"内蒙古自治区","lat":"43.9443","lng":"116.0919","cid":"101080901"},"152522":{"city":"锡林郭勒盟","district":"阿巴嘎旗","province":"内蒙古自治区","lat":"44.022728","lng":"114.97062","cid":"101080904"},"152523":{"city":"锡林郭勒盟","district":"苏尼特左旗","province":"内蒙古自治区","lat":"43.52","lng":"113.38","cid":"101080906"},"152524":{"city":"锡林郭勒盟","district":"苏尼特右旗","province":"内蒙古自治区","lat":"42.40647","lng":"112.90234","cid":"101080908"},"152525":{"city":"锡林郭勒盟","district":"东乌珠穆沁旗","province":"内蒙古自治区","lat":"45.711323","lng":"118.838394","cid":"101080917"},"152526":{"city":"锡林郭勒盟","district":"西乌珠穆沁旗","province":"内蒙古自治区","lat":"44.35","lng":"117.36","cid":"101080910"},"152527":{"city":"锡林郭勒盟","district":"太仆寺旗","province":"内蒙古自治区","lat":"41.8952","lng":"115.28728","cid":"101080911"},"152528":{"city":"锡林郭勒盟","district":"镶黄旗","province":"内蒙古自治区","lat":"42.239227","lng":"113.84387","cid":"101080912"},"152529":{"city":"锡林郭勒盟","district":"正镶白旗","province":"内蒙古自治区","lat":"42.286808","lng":"115.031425","cid":"101080913"},"152530":{"city":"锡林郭勒盟","district":"正蓝旗","province":"内蒙古自治区","lat":"42.245895","lng":"116.00331","cid":"101080914"},"152531":{"city":"锡林郭勒盟","district":"多伦县","province":"内蒙古自治区","lat":"42.197964","lng":"116.47729","cid":"101080915"},"152900":{"city":"阿拉善盟","district":"阿拉善盟","province":"内蒙古","lat":"38.844814","lng":"105.70642","cid":"101081213"},"152921":{"city":"阿拉善盟","district":"阿拉善左旗","province":"内蒙古自治区","lat":"37.88537","lng":"105.403366","cid":"101081212"},"152922":{"city":"阿拉善盟","district":"阿拉善右旗","province":"内蒙古自治区","lat":"39.429592","lng":"102.779366","cid":"101081210"},"152923":{"city":"阿拉善盟","district":"额济纳旗","province":"内蒙古自治区","lat":"41.368034","lng":"102.41601","cid":"101081204"},"210000":{"city":"沈阳","district":"沈阳","province":"辽宁","lat":"41.79677","lng":"123.42909","cid":"101070101"},"210100":{"city":"沈阳","district":"沈阳","province":"辽宁","lat":"41.79677","lng":"123.42909","cid":"101070101"},"210101":{"city":"沈阳","district":"沈阳","province":"辽宁","lat":"41.79677","lng":"123.42909","cid":"101070101"},"210102":{"city":"沈阳市","district":"和平区","province":"辽宁省","lat":"41.788074","lng":"123.40666","cid":"101070107"},"210103":{"city":"沈阳市","district":"沈河区","province":"辽宁省","lat":"41.79559","lng":"123.445694","cid":"101070108"},"210104":{"city":"沈阳市","district":"大东区","province":"辽宁省","lat":"41.808502","lng":"123.469955","cid":"101070109"},"210105":{"city":"沈阳市","district":"皇姑区","province":"辽宁省","lat":"41.822334","lng":"123.40568","cid":"101070110"},"210106":{"city":"沈阳市","district":"铁西区","province":"辽宁省","lat":"41.787807","lng":"123.35066","cid":"101070111"},"210111":{"city":"沈阳市","district":"苏家屯区","province":"辽宁省","lat":"41.665905","lng":"123.341606","cid":"101070112"},"210112":{"city":"沈阳市","district":"浑南区","province":"辽宁省","lat":"41.741947","lng":"123.458984","cid":"101070102"},"210113":{"city":"沈阳市","district":"沈北新区","province":"辽宁省","lat":"42.05231","lng":"123.52147","cid":"101070113"},"210114":{"city":"沈阳市","district":"于洪区","province":"辽宁省","lat":"41.795834","lng":"123.31083","cid":"101070114"},"210115":{"city":"沈阳市","district":"辽中区","province":"辽宁省","lat":"41.512726","lng":"122.73127","cid":"101070103"},"210123":{"city":"沈阳市","district":"康平县","province":"辽宁省","lat":"42.74153","lng":"123.3527","cid":"101070104"},"210124":{"city":"沈阳市","district":"法库县","province":"辽宁省","lat":"42.507046","lng":"123.416725","cid":"101070105"},"210181":{"city":"沈阳市","district":"新民市","province":"辽宁省","lat":"41.99651","lng":"122.828865","cid":"101070106"},"210200":{"city":"大连","district":"大连","province":"辽宁","lat":"38.91459","lng":"121.61862","cid":"101070201"},"210201":{"city":"大连","district":"大连","province":"辽宁","lat":"38.91459","lng":"121.61862","cid":"101070201"},"210202":{"city":"大连市","district":"中山区","province":"辽宁省","lat":"38.921555","lng":"121.64376","cid":"101070208"},"210203":{"city":"大连市","district":"西岗区","province":"辽宁省","lat":"38.914265","lng":"121.61611","cid":"101070209"},"210204":{"city":"大连市","district":"沙河口区","province":"辽宁省","lat":"38.91286","lng":"121.593704","cid":"101070210"},"210211":{"city":"大连市","district":"甘井子区","province":"辽宁省","lat":"38.975147","lng":"121.58261","cid":"101070211"},"210212":{"city":"大连市","district":"旅顺口区","province":"辽宁省","lat":"38.812042","lng":"121.26713","cid":"101070205"},"210213":{"city":"大连市","district":"金州区","province":"辽宁省","lat":"39.052746","lng":"121.78941","cid":"101070203"},"210214":{"city":"大连市","district":"普兰店区","province":"辽宁省","lat":"39.401554","lng":"121.9705","cid":"101070204"},"210224":{"city":"大连市","district":"长海县","province":"辽宁省","lat":"39.2724","lng":"122.58782","cid":"101070206"},"210281":{"city":"大连市","district":"瓦房店市","province":"辽宁省","lat":"39.63065","lng":"122.002655","cid":"101070202"},"210283":{"city":"大连市","district":"庄河市","province":"辽宁省","lat":"39.69829","lng":"122.97061","cid":"101070207"},"210300":{"city":"鞍山","district":"鞍山","province":"辽宁","lat":"41.110626","lng":"122.99563","cid":"101070301"},"210301":{"city":"鞍山","district":"鞍山","province":"辽宁","lat":"41.110626","lng":"122.99563","cid":"101070301"},"210302":{"city":"鞍山市","district":"铁东区","province":"辽宁省","lat":"41.110344","lng":"122.99448","cid":"101070305"},"210303":{"city":"鞍山市","district":"铁西区","province":"辽宁省","lat":"41.11069","lng":"122.97183","cid":"101070306"},"210304":{"city":"鞍山市","district":"立山区","province":"辽宁省","lat":"41.150623","lng":"123.0248","cid":"101070307"},"210311":{"city":"鞍山市","district":"千山区","province":"辽宁省","lat":"41.06891","lng":"122.949295","cid":"101070308"},"210321":{"city":"鞍山市","district":"台安县","province":"辽宁省","lat":"41.38686","lng":"122.42973","cid":"101070302"},"210323":{"city":"鞍山市","district":"岫岩满族自治县","province":"辽宁省","lat":"40.28151","lng":"123.28833","cid":"101070303"},"210381":{"city":"鞍山市","district":"海城市","province":"辽宁省","lat":"40.85253","lng":"122.7522","cid":"101070304"},"210400":{"city":"抚顺","district":"抚顺","province":"辽宁","lat":"41.922646","lng":"124.09798","cid":"101070401"},"210401":{"city":"抚顺","district":"抚顺","province":"辽宁","lat":"41.922646","lng":"124.09798","cid":"101070401"},"210402":{"city":"抚顺市","district":"新抚区","province":"辽宁省","lat":"41.86082","lng":"123.902855","cid":"101070405"},"210403":{"city":"抚顺市","district":"东洲区","province":"辽宁省","lat":"41.86683","lng":"124.04722","cid":"101070406"},"210404":{"city":"抚顺市","district":"望花区","province":"辽宁省","lat":"41.851803","lng":"123.801506","cid":"101070407"},"210411":{"city":"抚顺市","district":"顺城区","province":"辽宁省","lat":"41.88113","lng":"123.91717","cid":"101070408"},"210421":{"city":"抚顺","district":"抚顺","province":"辽宁","lat":"41.922646","lng":"124.09798","cid":"101070401"},"210422":{"city":"抚顺市","district":"新宾满族自治县","province":"辽宁省","lat":"41.732456","lng":"125.037544","cid":"101070402"},"210423":{"city":"抚顺市","district":"清原满族自治县","province":"辽宁省","lat":"42.10135","lng":"124.92719","cid":"101070403"},"210500":{"city":"本溪","district":"本溪","province":"辽宁","lat":"41.29791","lng":"123.770515","cid":"101070501"},"210501":{"city":"本溪","district":"本溪","province":"辽宁","lat":"41.29791","lng":"123.770515","cid":"101070501"},"210502":{"city":"本溪市","district":"平山区","province":"辽宁省","lat":"41.29158","lng":"123.76123","cid":"101070503"},"210503":{"city":"本溪市","district":"溪湖区","province":"辽宁省","lat":"41.330055","lng":"123.76523","cid":"101070505"},"210504":{"city":"本溪市","district":"明山区","province":"辽宁省","lat":"41.30243","lng":"123.76329","cid":"101070506"},"210505":{"city":"本溪市","district":"南芬区","province":"辽宁省","lat":"41.10409","lng":"123.74838","cid":"101070507"},"210521":{"city":"本溪市","district":"本溪满族自治县","province":"辽宁省","lat":"41.18","lng":"124.17","cid":"101070502"},"210522":{"city":"本溪市","district":"桓仁满族自治县","province":"辽宁省","lat":"41.268997","lng":"125.35919","cid":"101070504"},"210600":{"city":"丹东","district":"丹东","province":"辽宁","lat":"40.124294","lng":"124.38304","cid":"101070601"},"210601":{"city":"丹东","district":"丹东","province":"辽宁","lat":"40.124294","lng":"124.38304","cid":"101070601"},"210602":{"city":"丹东市","district":"元宝区","province":"辽宁省","lat":"40.136482","lng":"124.39781","cid":"101070605"},"210603":{"city":"丹东市","district":"振兴区","province":"辽宁省","lat":"40.102802","lng":"124.36115","cid":"101070606"},"210604":{"city":"丹东市","district":"振安区","province":"辽宁省","lat":"40.158558","lng":"124.42771","cid":"101070607"},"210624":{"city":"丹东市","district":"宽甸满族自治县","province":"辽宁省","lat":"40.73041","lng":"124.78487","cid":"101070603"},"210681":{"city":"丹东市","district":"东港市","province":"辽宁省","lat":"39.88347","lng":"124.14944","cid":"101070604"},"210682":{"city":"丹东市","district":"凤城市","province":"辽宁省","lat":"40.457565","lng":"124.07107","cid":"101070602"},"210700":{"city":"锦州","district":"锦州","province":"辽宁","lat":"41.11927","lng":"121.13574","cid":"101070701"},"210701":{"city":"锦州","district":"锦州","province":"辽宁","lat":"41.11927","lng":"121.13574","cid":"101070701"},"210702":{"city":"锦州市","district":"古塔区","province":"辽宁省","lat":"41.11572","lng":"121.13009","cid":"101070703"},"210703":{"city":"锦州市","district":"凌河区","province":"辽宁省","lat":"41.114662","lng":"121.151306","cid":"101070707"},"210711":{"city":"锦州市","district":"太和区","province":"辽宁省","lat":"41.105377","lng":"121.1073","cid":"101070708"},"210726":{"city":"锦州市","district":"黑山县","province":"辽宁省","lat":"41.691803","lng":"122.11791","cid":"101070705"},"210727":{"city":"锦州市","district":"义县","province":"辽宁省","lat":"41.537224","lng":"121.24283","cid":"101070704"},"210781":{"city":"锦州市","district":"凌海市","province":"辽宁省","lat":"41.171738","lng":"121.364235","cid":"101070702"},"210782":{"city":"锦州市","district":"北镇市","province":"辽宁省","lat":"41.598763","lng":"121.79596","cid":"101070706"},"210800":{"city":"营口","district":"营口","province":"辽宁","lat":"40.66743","lng":"122.23515","cid":"101070801"},"210801":{"city":"营口","district":"营口","province":"辽宁","lat":"40.66743","lng":"122.23515","cid":"101070801"},"210802":{"city":"营口市","district":"站前区","province":"辽宁省","lat":"40.66995","lng":"122.253235","cid":"101070804"},"210803":{"city":"营口市","district":"西市区","province":"辽宁省","lat":"40.663086","lng":"122.21007","cid":"101070805"},"210804":{"city":"营口市","district":"鲅鱼圈区","province":"辽宁省","lat":"40.263645","lng":"122.12724","cid":"101070806"},"210811":{"city":"营口市","district":"老边区","province":"辽宁省","lat":"40.682724","lng":"122.38258","cid":"101070807"},"210881":{"city":"营口市","district":"盖州市","province":"辽宁省","lat":"40.405235","lng":"122.35554","cid":"101070803"},"210882":{"city":"营口市","district":"大石桥市","province":"辽宁省","lat":"40.633972","lng":"122.5059","cid":"101070802"},"210900":{"city":"阜新","district":"阜新","province":"辽宁","lat":"42.058605","lng":"121.743126","cid":"101070901"},"210901":{"city":"阜新","district":"阜新","province":"辽宁","lat":"42.058605","lng":"121.743126","cid":"101070901"},"210902":{"city":"阜新市","district":"海州区","province":"辽宁省","lat":"42.01116","lng":"121.65764","cid":"101070903"},"210903":{"city":"阜新市","district":"新邱区","province":"辽宁省","lat":"42.0866","lng":"121.79054","cid":"101070904"},"210904":{"city":"阜新市","district":"太平区","province":"辽宁省","lat":"42.011147","lng":"121.677574","cid":"101070905"},"210905":{"city":"阜新市","district":"清河门区","province":"辽宁省","lat":"41.780476","lng":"121.42018","cid":"101070906"},"210911":{"city":"阜新市","district":"细河区","province":"辽宁省","lat":"42.01922","lng":"121.65479","cid":"101070907"},"210921":{"city":"阜新","district":"阜新","province":"辽宁","lat":"42.058605","lng":"121.743126","cid":"101070901"},"210922":{"city":"阜新市","district":"彰武县","province":"辽宁省","lat":"42.384823","lng":"122.537445","cid":"101070902"},"211000":{"city":"辽阳","district":"辽阳","province":"辽宁","lat":"41.2694","lng":"123.18152","cid":"101071001"},"211001":{"city":"辽阳","district":"辽阳","province":"辽宁","lat":"41.2694","lng":"123.18152","cid":"101071001"},"211002":{"city":"辽阳市","district":"白塔区","province":"辽宁省","lat":"41.26745","lng":"123.17261","cid":"101071005"},"211003":{"city":"辽阳市","district":"文圣区","province":"辽宁省","lat":"41.266766","lng":"123.188225","cid":"101071006"},"211004":{"city":"辽阳市","district":"宏伟区","province":"辽宁省","lat":"41.205746","lng":"123.20046","cid":"101071007"},"211005":{"city":"辽阳市","district":"弓长岭区","province":"辽宁省","lat":"41.15783","lng":"123.43163","cid":"101071004"},"211011":{"city":"辽阳市","district":"太子河区","province":"辽宁省","lat":"41.251682","lng":"123.18533","cid":"101071008"},"211021":{"city":"辽阳市","district":"辽阳县","province":"辽宁省","lat":"41.21648","lng":"123.07967","cid":"101071002"},"211081":{"city":"辽阳市","district":"灯塔市","province":"辽宁省","lat":"41.427837","lng":"123.32587","cid":"101071003"},"211100":{"city":"盘锦","district":"盘锦","province":"辽宁","lat":"41.124485","lng":"122.06957","cid":"101071301"},"211101":{"city":"盘锦","district":"盘锦","province":"辽宁","lat":"41.124485","lng":"122.06957","cid":"101071301"},"211102":{"city":"盘锦市","district":"双台子区","province":"辽宁省","lat":"41.190365","lng":"122.05573","cid":"101071304"},"211103":{"city":"盘锦市","district":"兴隆台区","province":"辽宁省","lat":"41.12242","lng":"122.071625","cid":"101071305"},"211104":{"city":"盘锦市","district":"大洼区","province":"辽宁省","lat":"40.994427","lng":"122.07171","cid":"101071302"},"211122":{"city":"盘锦市","district":"盘山县","province":"辽宁省","lat":"41.2407","lng":"121.98528","cid":"101071303"},"211200":{"city":"铁岭","district":"铁岭","province":"辽宁","lat":"42.223316","lng":"123.72567","cid":"101071101"},"211201":{"city":"铁岭","district":"铁岭","province":"辽宁","lat":"42.223316","lng":"123.72567","cid":"101071101"},"211202":{"city":"铁岭市","district":"银州区","province":"辽宁省","lat":"42.29228","lng":"123.84488","cid":"101071106"},"211204":{"city":"铁岭市","district":"清河区","province":"辽宁省","lat":"42.542976","lng":"124.14896","cid":"101071107"},"211221":{"city":"铁岭","district":"铁岭","province":"辽宁","lat":"42.223316","lng":"123.72567","cid":"101071101"},"211223":{"city":"铁岭市","district":"西丰县","province":"辽宁省","lat":"42.73809","lng":"124.72332","cid":"101071104"},"211224":{"city":"铁岭市","district":"昌图县","province":"辽宁省","lat":"42.784443","lng":"124.11017","cid":"101071103"},"211281":{"city":"铁岭市","district":"调兵山市","province":"辽宁省","lat":"42.450733","lng":"123.545364","cid":"101071105"},"211282":{"city":"铁岭市","district":"开原市","province":"辽宁省","lat":"42.54214","lng":"124.04555","cid":"101071102"},"211300":{"city":"朝阳","district":"朝阳","province":"辽宁","lat":"41.57676","lng":"120.45118","cid":"101071201"},"211301":{"city":"朝阳","district":"朝阳","province":"辽宁","lat":"41.57676","lng":"120.45118","cid":"101071201"},"211302":{"city":"朝阳市","district":"双塔区","province":"辽宁省","lat":"41.579388","lng":"120.44877","cid":"101071202"},"211303":{"city":"朝阳市","district":"龙城区","province":"辽宁省","lat":"41.576748","lng":"120.413376","cid":"101071206"},"211321":{"city":"朝阳","district":"朝阳","province":"辽宁","lat":"41.57676","lng":"120.45118","cid":"101071201"},"211322":{"city":"朝阳市","district":"建平县","province":"辽宁省","lat":"41.402576","lng":"119.642365","cid":"101071207"},"211324":{"city":"朝阳市","district":"喀喇沁左翼蒙古族自治县","province":"辽宁省","lat":"41.05","lng":"119.43","cid":"101071204"},"211381":{"city":"朝阳市","district":"北票市","province":"辽宁省","lat":"41.803288","lng":"120.76695","cid":"101071205"},"211382":{"city":"朝阳市","district":"凌源市","province":"辽宁省","lat":"41.243088","lng":"119.40479","cid":"101071203"},"211400":{"city":"葫芦岛","district":"葫芦岛","province":"辽宁","lat":"40.755573","lng":"120.85639","cid":"101071401"},"211401":{"city":"葫芦岛","district":"葫芦岛","province":"辽宁","lat":"40.755573","lng":"120.85639","cid":"101071401"},"211402":{"city":"葫芦岛市","district":"连山区","province":"辽宁省","lat":"40.755142","lng":"120.85937","cid":"101071405"},"211403":{"city":"葫芦岛市","district":"龙港区","province":"辽宁省","lat":"40.70999","lng":"120.83857","cid":"101071406"},"211404":{"city":"葫芦岛市","district":"南票区","province":"辽宁省","lat":"41.098812","lng":"120.75231","cid":"101071407"},"211421":{"city":"葫芦岛市","district":"绥中县","province":"辽宁省","lat":"40.328407","lng":"120.34211","cid":"101071403"},"211422":{"city":"葫芦岛市","district":"建昌县","province":"辽宁省","lat":"40.81287","lng":"119.80778","cid":"101071402"},"211481":{"city":"葫芦岛市","district":"兴城市","province":"辽宁省","lat":"40.61941","lng":"120.72936","cid":"101071404"},"220000":{"city":"长春","district":"长春","province":"吉林","lat":"43.88684","lng":"125.3245","cid":"101060101"},"220100":{"city":"长春","district":"长春","province":"吉林","lat":"43.88684","lng":"125.3245","cid":"101060101"},"220101":{"city":"长春","district":"长春","province":"吉林","lat":"43.88684","lng":"125.3245","cid":"101060101"},"220102":{"city":"长春市","district":"南关区","province":"吉林省","lat":"43.890236","lng":"125.337234","cid":"101060108"},"220103":{"city":"长春市","district":"宽城区","province":"吉林省","lat":"43.903824","lng":"125.34283","cid":"101060109"},"220104":{"city":"长春市","district":"朝阳区","province":"吉林省","lat":"43.86491","lng":"125.31804","cid":"101060110"},"220105":{"city":"长春市","district":"二道区","province":"吉林省","lat":"43.870823","lng":"125.38473","cid":"101060107"},"220106":{"city":"长春市","district":"绿园区","province":"吉林省","lat":"43.892178","lng":"125.27247","cid":"101060111"},"220112":{"city":"长春市","district":"双阳区","province":"吉林省","lat":"43.52517","lng":"125.65902","cid":"101060106"},"220113":{"city":"长春市","district":"九台区","province":"吉林省","lat":"44.157154","lng":"125.84468","cid":"101060104"},"220122":{"city":"长春市","district":"农安县","province":"吉林省","lat":"44.43126","lng":"125.175285","cid":"101060102"},"220182":{"city":"长春市","district":"榆树市","province":"吉林省","lat":"44.82764","lng":"126.55011","cid":"101060105"},"220183":{"city":"长春市","district":"德惠市","province":"吉林省","lat":"44.53391","lng":"125.70332","cid":"101060103"},"220200":{"city":"吉林","district":"吉林","province":"吉林","lat":"43.84358","lng":"126.55302","cid":"101060201"},"220201":{"city":"吉林","district":"吉林","province":"吉林","lat":"43.84358","lng":"126.55302","cid":"101060201"},"220202":{"city":"吉林市","district":"昌邑区","province":"吉林省","lat":"43.851116","lng":"126.57076","cid":"101060207"},"220203":{"city":"吉林市","district":"龙潭区","province":"吉林省","lat":"43.909756","lng":"126.56143","cid":"101060208"},"220204":{"city":"吉林市","district":"船营区","province":"吉林省","lat":"43.843803","lng":"126.55239","cid":"101060209"},"220211":{"city":"吉林市","district":"丰满区","province":"吉林省","lat":"43.816593","lng":"126.56076","cid":"101060210"},"220221":{"city":"吉林市","district":"永吉县","province":"吉林省","lat":"43.667416","lng":"126.501625","cid":"101060203"},"220281":{"city":"吉林市","district":"蛟河市","province":"吉林省","lat":"43.720577","lng":"127.342735","cid":"101060204"},"220282":{"city":"吉林市","district":"桦甸市","province":"吉林省","lat":"42.97209","lng":"126.745445","cid":"101060206"},"220283":{"city":"吉林市","district":"舒兰市","province":"吉林省","lat":"44.410908","lng":"126.947815","cid":"101060202"},"220284":{"city":"吉林市","district":"磐石市","province":"吉林省","lat":"42.942474","lng":"126.05993","cid":"101060205"},"220300":{"city":"四平","district":"四平","province":"吉林","lat":"43.170345","lng":"124.37079","cid":"101060401"},"220301":{"city":"四平","district":"四平","province":"吉林","lat":"43.170345","lng":"124.37079","cid":"101060401"},"220302":{"city":"四平市","district":"铁西区","province":"吉林省","lat":"43.17626","lng":"124.36089","cid":"101060406"},"220303":{"city":"四平市","district":"铁东区","province":"吉林省","lat":"43.16726","lng":"124.388466","cid":"101060407"},"220322":{"city":"四平市","district":"梨树县","province":"吉林省","lat":"43.30831","lng":"124.3358","cid":"101060403"},"220323":{"city":"四平市","district":"伊通满族自治县","province":"吉林省","lat":"43.345463","lng":"125.30312","cid":"101060405"},"220381":{"city":"四平市","district":"公主岭市","province":"吉林省","lat":"43.509476","lng":"124.81759","cid":"101060404"},"220382":{"city":"四平市","district":"双辽市","province":"吉林省","lat":"43.518276","lng":"123.50528","cid":"101060402"},"220400":{"city":"辽源","district":"辽源","province":"吉林","lat":"42.90269","lng":"125.14535","cid":"101060701"},"220401":{"city":"辽源","district":"辽源","province":"吉林","lat":"42.90269","lng":"125.14535","cid":"101060701"},"220402":{"city":"辽源市","district":"龙山区","province":"吉林省","lat":"42.902702","lng":"125.145164","cid":"101060704"},"220403":{"city":"辽源市","district":"西安区","province":"吉林省","lat":"42.920414","lng":"125.15142","cid":"101060705"},"220421":{"city":"辽源市","district":"东丰县","province":"吉林省","lat":"42.67523","lng":"125.529625","cid":"101060702"},"220422":{"city":"辽源市","district":"东辽县","province":"吉林省","lat":"42.927723","lng":"124.992","cid":"101060703"},"220500":{"city":"通化","district":"通化","province":"吉林","lat":"41.721176","lng":"125.9365","cid":"101060501"},"220501":{"city":"通化","district":"通化","province":"吉林","lat":"41.721176","lng":"125.9365","cid":"101060501"},"220502":{"city":"通化市","district":"东昌区","province":"吉林省","lat":"41.721233","lng":"125.936714","cid":"101060507"},"220503":{"city":"通化市","district":"二道江区","province":"吉林省","lat":"41.777565","lng":"126.04599","cid":"101060508"},"220521":{"city":"通化市","district":"通化县","province":"吉林省","lat":"41.677917","lng":"125.75312","cid":"101060506"},"220523":{"city":"通化市","district":"辉南县","province":"吉林省","lat":"42.68346","lng":"126.04282","cid":"101060504"},"220524":{"city":"通化市","district":"柳河县","province":"吉林省","lat":"42.281483","lng":"125.74054","cid":"101060503"},"220581":{"city":"通化市","district":"梅河口市","province":"吉林省","lat":"42.530003","lng":"125.68734","cid":"101060502"},"220582":{"city":"通化市","district":"集安市","province":"吉林省","lat":"41.126274","lng":"126.1862","cid":"101060505"},"220600":{"city":"白山","district":"白山","province":"吉林","lat":"41.942505","lng":"126.42784","cid":"101060901"},"220601":{"city":"白山","district":"白山","province":"吉林","lat":"41.942505","lng":"126.42784","cid":"101060901"},"220602":{"city":"白山市","district":"浑江区","province":"吉林省","lat":"41.943066","lng":"126.42803","cid":"101060908"},"220605":{"city":"白山市","district":"江源区","province":"吉林省","lat":"42.048107","lng":"126.58423","cid":"101060907"},"220621":{"city":"白山市","district":"抚松县","province":"吉林省","lat":"42.33264","lng":"127.273796","cid":"101060906"},"220622":{"city":"白山市","district":"靖宇县","province":"吉林省","lat":"42.38969","lng":"126.80839","cid":"101060902"},"220623":{"city":"白山市","district":"长白朝鲜族自治县","province":"吉林省","lat":"41.41936","lng":"128.20338","cid":"101060905"},"220681":{"city":"白山市","district":"临江市","province":"吉林省","lat":"41.810688","lng":"126.9193","cid":"101060903"},"220700":{"city":"松原","district":"松原","province":"吉林","lat":"45.118244","lng":"124.82361","cid":"101060801"},"220701":{"city":"松原","district":"松原","province":"吉林","lat":"45.118244","lng":"124.82361","cid":"101060801"},"220702":{"city":"松原市","district":"宁江区","province":"吉林省","lat":"45.1765","lng":"124.82785","cid":"101060806"},"220721":{"city":"松原市","district":"前郭尔罗斯蒙古族自治县","province":"吉林省","lat":"45.116287","lng":"124.826805","cid":"101060803"},"220722":{"city":"松原市","district":"长岭县","province":"吉林省","lat":"44.27658","lng":"123.98518","cid":"101060804"},"220723":{"city":"松原市","district":"乾安县","province":"吉林省","lat":"45.006847","lng":"124.02436","cid":"101060802"},"220781":{"city":"松原市","district":"扶余市","province":"吉林省","lat":"44.9862","lng":"126.042755","cid":"101060805"},"220800":{"city":"白城","district":"白城","province":"吉林","lat":"45.619026","lng":"122.84111","cid":"101060601"},"220801":{"city":"白城","district":"白城","province":"吉林","lat":"45.619026","lng":"122.84111","cid":"101060601"},"220802":{"city":"白城市","district":"洮北区","province":"吉林省","lat":"45.61925","lng":"122.8425","cid":"101060606"},"220821":{"city":"白城市","district":"镇赉县","province":"吉林省","lat":"45.84609","lng":"123.20225","cid":"101060604"},"220822":{"city":"白城市","district":"通榆县","province":"吉林省","lat":"44.80915","lng":"123.08855","cid":"101060605"},"220881":{"city":"白城市","district":"洮南市","province":"吉林省","lat":"45.33911","lng":"122.783775","cid":"101060602"},"220882":{"city":"白城市","district":"大安市","province":"吉林省","lat":"45.50765","lng":"124.29151","cid":"101060603"},"222400":{"city":"延边","district":"延边","province":"吉林","lat":"42.904823","lng":"129.51323","cid":"101060306"},"222401":{"city":"延边朝鲜族自治州","district":"延吉市","province":"吉林省","lat":"42.906963","lng":"129.5158","cid":"101060301"},"222402":{"city":"延边朝鲜族自治州","district":"图们市","province":"吉林省","lat":"42.96662","lng":"129.8467","cid":"101060309"},"222403":{"city":"延边朝鲜族自治州","district":"敦化市","province":"吉林省","lat":"43.36692","lng":"128.22986","cid":"101060302"},"222404":{"city":"延边朝鲜族自治州","district":"珲春市","province":"吉林省","lat":"42.871056","lng":"130.36578","cid":"101060308"},"222405":{"city":"延边朝鲜族自治州","district":"龙井市","province":"吉林省","lat":"42.77103","lng":"129.42575","cid":"101060307"},"222406":{"city":"延边朝鲜族自治州","district":"和龙市","province":"吉林省","lat":"42.547005","lng":"129.00874","cid":"101060305"},"222424":{"city":"延边朝鲜族自治州","district":"汪清县","province":"吉林省","lat":"43.315426","lng":"129.76616","cid":"101060304"},"222426":{"city":"延边朝鲜族自治州","district":"安图县","province":"吉林省","lat":"43.110992","lng":"128.90187","cid":"101060303"},"230000":{"city":"哈尔滨","district":"哈尔滨","province":"黑龙江","lat":"45.756966","lng":"126.64246","cid":"101050101"},"230100":{"city":"哈尔滨","district":"哈尔滨","province":"黑龙江","lat":"45.756966","lng":"126.64246","cid":"101050101"},"230101":{"city":"哈尔滨","district":"哈尔滨","province":"黑龙江","lat":"45.756966","lng":"126.64246","cid":"101050101"},"230102":{"city":"哈尔滨市","district":"道里区","province":"黑龙江省","lat":"45.762035","lng":"126.61253","cid":"101050114"},"230103":{"city":"哈尔滨市","district":"南岗区","province":"黑龙江省","lat":"45.75597","lng":"126.6521","cid":"101050115"},"230104":{"city":"哈尔滨市","district":"道外区","province":"黑龙江省","lat":"45.78454","lng":"126.648834","cid":"101050116"},"230108":{"city":"哈尔滨市","district":"平房区","province":"黑龙江省","lat":"45.605568","lng":"126.62926","cid":"101050117"},"230109":{"city":"哈尔滨市","district":"松北区","province":"黑龙江省","lat":"45.814655","lng":"126.563065","cid":"101050118"},"230110":{"city":"哈尔滨市","district":"香坊区","province":"黑龙江省","lat":"45.713066","lng":"126.667046","cid":"101050119"},"230111":{"city":"哈尔滨市","district":"呼兰区","province":"黑龙江省","lat":"45.98423","lng":"126.6033","cid":"101050103"},"230112":{"city":"哈尔滨市","district":"阿城区","province":"黑龙江省","lat":"45.538372","lng":"126.972725","cid":"101050104"},"230113":{"city":"哈尔滨市","district":"双城区","province":"黑龙江省","lat":"45.37794","lng":"126.308784","cid":"101050102"},"230123":{"city":"哈尔滨市","district":"依兰县","province":"黑龙江省","lat":"46.315105","lng":"129.5656","cid":"101050106"},"230124":{"city":"哈尔滨市","district":"方正县","province":"黑龙江省","lat":"45.839535","lng":"128.83614","cid":"101050109"},"230125":{"city":"哈尔滨市","district":"宾县","province":"黑龙江省","lat":"45.75937","lng":"127.48594","cid":"101050105"},"230126":{"city":"哈尔滨市","district":"巴彦县","province":"黑龙江省","lat":"46.08189","lng":"127.4036","cid":"101050107"},"230127":{"city":"哈尔滨市","district":"木兰县","province":"黑龙江省","lat":"45.949825","lng":"128.04268","cid":"101050113"},"230128":{"city":"哈尔滨市","district":"通河县","province":"黑龙江省","lat":"45.97762","lng":"128.74779","cid":"101050108"},"230129":{"city":"哈尔滨市","district":"延寿县","province":"黑龙江省","lat":"45.455647","lng":"128.33188","cid":"101050110"},"230183":{"city":"哈尔滨市","district":"尚志市","province":"黑龙江省","lat":"45.214954","lng":"127.96854","cid":"101050111"},"230184":{"city":"哈尔滨市","district":"五常市","province":"黑龙江省","lat":"44.91942","lng":"127.15759","cid":"101050112"},"230200":{"city":"齐齐哈尔","district":"齐齐哈尔","province":"黑龙江","lat":"47.34208","lng":"123.95792","cid":"101050201"},"230201":{"city":"齐齐哈尔","district":"齐齐哈尔","province":"黑龙江","lat":"47.34208","lng":"123.95792","cid":"101050201"},"230202":{"city":"齐齐哈尔市","district":"龙沙区","province":"黑龙江省","lat":"47.341736","lng":"123.95734","cid":"101050211"},"230203":{"city":"齐齐哈尔市","district":"建华区","province":"黑龙江省","lat":"47.354492","lng":"123.95589","cid":"101050212"},"230204":{"city":"齐齐哈尔市","district":"铁锋区","province":"黑龙江省","lat":"47.3395","lng":"123.97356","cid":"101050213"},"230205":{"city":"齐齐哈尔市","district":"昂昂溪区","province":"黑龙江省","lat":"47.156868","lng":"123.81318","cid":"101050214"},"230206":{"city":"齐齐哈尔市","district":"富拉尔基区","province":"黑龙江省","lat":"47.20697","lng":"123.63887","cid":"101050215"},"230207":{"city":"齐齐哈尔市","district":"碾子山区","province":"黑龙江省","lat":"47.51401","lng":"122.88797","cid":"101050216"},"230208":{"city":"齐齐哈尔市","district":"梅里斯达斡尔族区","province":"黑龙江省","lat":"47.31111","lng":"123.7546","cid":"101050217"},"230221":{"city":"齐齐哈尔市","district":"龙江县","province":"黑龙江省","lat":"47.336388","lng":"123.187225","cid":"101050203"},"230223":{"city":"齐齐哈尔市","district":"依安县","province":"黑龙江省","lat":"47.8901","lng":"125.30756","cid":"101050206"},"230224":{"city":"齐齐哈尔市","district":"泰来县","province":"黑龙江省","lat":"46.39233","lng":"123.41953","cid":"101050210"},"230225":{"city":"齐齐哈尔市","district":"甘南县","province":"黑龙江省","lat":"47.91784","lng":"123.506035","cid":"101050204"},"230227":{"city":"齐齐哈尔市","district":"富裕县","province":"黑龙江省","lat":"47.797173","lng":"124.46911","cid":"101050205"},"230229":{"city":"齐齐哈尔市","district":"克山县","province":"黑龙江省","lat":"48.034344","lng":"125.87435","cid":"101050208"},"230230":{"city":"齐齐哈尔市","district":"克东县","province":"黑龙江省","lat":"48.03732","lng":"126.24909","cid":"101050209"},"230231":{"city":"齐齐哈尔市","district":"拜泉县","province":"黑龙江省","lat":"47.607365","lng":"126.09191","cid":"101050207"},"230281":{"city":"齐齐哈尔市","district":"讷河市","province":"黑龙江省","lat":"48.481133","lng":"124.88217","cid":"101050202"},"230300":{"city":"鸡西","district":"鸡西","province":"黑龙江","lat":"45.300045","lng":"130.97597","cid":"101051101"},"230301":{"city":"鸡西","district":"鸡西","province":"黑龙江","lat":"45.300045","lng":"130.97597","cid":"101051101"},"230302":{"city":"鸡西市","district":"鸡冠区","province":"黑龙江省","lat":"45.30034","lng":"130.97438","cid":"101051105"},"230303":{"city":"鸡西市","district":"恒山区","province":"黑龙江省","lat":"45.21324","lng":"130.91063","cid":"101051106"},"230304":{"city":"鸡西市","district":"滴道区","province":"黑龙江省","lat":"45.348812","lng":"130.84682","cid":"101051107"},"230305":{"city":"鸡西市","district":"梨树区","province":"黑龙江省","lat":"45.092194","lng":"130.69778","cid":"101051108"},"230306":{"city":"鸡西市","district":"城子河区","province":"黑龙江省","lat":"45.33825","lng":"131.0105","cid":"101051109"},"230307":{"city":"鸡西市","district":"麻山区","province":"黑龙江省","lat":"45.209606","lng":"130.48112","cid":"101051110"},"230321":{"city":"鸡西市","district":"鸡东县","province":"黑龙江省","lat":"45.250893","lng":"131.14891","cid":"101051104"},"230381":{"city":"鸡西市","district":"虎林市","province":"黑龙江省","lat":"45.767986","lng":"132.97388","cid":"101051102"},"230382":{"city":"鸡西市","district":"密山市","province":"黑龙江省","lat":"45.54725","lng":"131.87413","cid":"101051103"},"230400":{"city":"鹤岗","district":"鹤岗","province":"黑龙江","lat":"47.332085","lng":"130.27748","cid":"101051201"},"230401":{"city":"鹤岗","district":"鹤岗","province":"黑龙江","lat":"47.332085","lng":"130.27748","cid":"101051201"},"230402":{"city":"鹤岗市","district":"向阳区","province":"黑龙江省","lat":"47.34537","lng":"130.29248","cid":"101051204"},"230403":{"city":"鹤岗市","district":"工农区","province":"黑龙江省","lat":"47.331676","lng":"130.27666","cid":"101051205"},"230404":{"city":"鹤岗市","district":"南山区","province":"黑龙江省","lat":"47.31324","lng":"130.27553","cid":"101051206"},"230405":{"city":"鹤岗市","district":"兴安区","province":"黑龙江省","lat":"47.25291","lng":"130.23618","cid":"101051207"},"230406":{"city":"鹤岗市","district":"东山区","province":"黑龙江省","lat":"47.337383","lng":"130.31714","cid":"101051208"},"230407":{"city":"鹤岗市","district":"兴山区","province":"黑龙江省","lat":"47.35997","lng":"130.30534","cid":"101051209"},"230421":{"city":"鹤岗市","district":"萝北县","province":"黑龙江省","lat":"47.577576","lng":"130.82909","cid":"101051203"},"230422":{"city":"鹤岗市","district":"绥滨县","province":"黑龙江省","lat":"47.28989","lng":"131.86052","cid":"101051202"},"230500":{"city":"双鸭山","district":"双鸭山","province":"黑龙江","lat":"46.64344","lng":"131.1573","cid":"101051301"},"230501":{"city":"双鸭山","district":"双鸭山","province":"黑龙江","lat":"46.64344","lng":"131.1573","cid":"101051301"},"230502":{"city":"双鸭山市","district":"尖山区","province":"黑龙江省","lat":"46.64296","lng":"131.15897","cid":"101051306"},"230503":{"city":"双鸭山市","district":"岭东区","province":"黑龙江省","lat":"46.591076","lng":"131.16368","cid":"101051307"},"230505":{"city":"双鸭山市","district":"四方台区","province":"黑龙江省","lat":"46.594345","lng":"131.33318","cid":"101051308"},"230506":{"city":"双鸭山市","district":"宝山区","province":"黑龙江省","lat":"46.573364","lng":"131.4043","cid":"101051309"},"230521":{"city":"双鸭山市","district":"集贤县","province":"黑龙江省","lat":"46.72898","lng":"131.13933","cid":"101051302"},"230522":{"city":"双鸭山市","district":"友谊县","province":"黑龙江省","lat":"46.775158","lng":"131.81062","cid":"101051305"},"230523":{"city":"双鸭山市","district":"宝清县","province":"黑龙江省","lat":"46.32878","lng":"132.20642","cid":"101051303"},"230524":{"city":"双鸭山市","district":"饶河县","province":"黑龙江省","lat":"46.80129","lng":"134.02116","cid":"101051304"},"230600":{"city":"大庆","district":"大庆","province":"黑龙江","lat":"46.590733","lng":"125.11272","cid":"101050901"},"230601":{"city":"大庆","district":"大庆","province":"黑龙江","lat":"46.590733","lng":"125.11272","cid":"101050901"},"230602":{"city":"大庆市","district":"萨尔图区","province":"黑龙江省","lat":"46.596355","lng":"125.11464","cid":"101050906"},"230603":{"city":"大庆市","district":"龙凤区","province":"黑龙江省","lat":"46.573948","lng":"125.1458","cid":"101050907"},"230604":{"city":"大庆市","district":"让胡路区","province":"黑龙江省","lat":"46.653255","lng":"124.86834","cid":"101050908"},"230605":{"city":"大庆市","district":"红岗区","province":"黑龙江省","lat":"46.40305","lng":"124.88953","cid":"101050909"},"230606":{"city":"大庆市","district":"大同区","province":"黑龙江省","lat":"46.034306","lng":"124.81851","cid":"101050910"},"230621":{"city":"大庆市","district":"肇州县","province":"黑龙江省","lat":"45.708687","lng":"125.273254","cid":"101050903"},"230622":{"city":"大庆市","district":"肇源县","province":"黑龙江省","lat":"45.518833","lng":"125.08197","cid":"101050904"},"230623":{"city":"大庆市","district":"林甸县","province":"黑龙江省","lat":"47.186413","lng":"124.87774","cid":"101050902"},"230624":{"city":"大庆市","district":"杜尔伯特蒙古族自治县","province":"黑龙江省","lat":"46.865974","lng":"124.44626","cid":"101050905"},"230700":{"city":"伊春","district":"伊春","province":"黑龙江","lat":"47.726852","lng":"128.89928","cid":"101050801"},"230701":{"city":"伊春","district":"伊春","province":"黑龙江","lat":"47.726852","lng":"128.89928","cid":"101050801"},"230702":{"city":"伊春","district":"伊春","province":"黑龙江","lat":"47.726852","lng":"128.89928","cid":"101050801"},"230703":{"city":"伊春","district":"南岔","province":"黑龙江","lat":"47.137314","lng":"129.28246","cid":"101050806"},"230704":{"city":"伊春","district":"友好","province":"黑龙江","lat":"47.8543","lng":"128.83896","cid":"101050807"},"230705":{"city":"伊春","district":"西林","province":"黑龙江","lat":"47.47944","lng":"129.31145","cid":"101050808"},"230706":{"city":"伊春","district":"翠峦","province":"黑龙江","lat":"47.726227","lng":"128.67175","cid":"101050809"},"230707":{"city":"伊春","district":"新青","province":"黑龙江","lat":"48.288292","lng":"129.52995","cid":"101050810"},"230708":{"city":"伊春","district":"美溪","province":"黑龙江","lat":"47.6361","lng":"129.1334","cid":"101050811"},"230709":{"city":"伊春","district":"金山屯","province":"黑龙江","lat":"47.41295","lng":"129.43594","cid":"101050812"},"230710":{"city":"伊春","district":"五营","province":"黑龙江","lat":"48.108204","lng":"129.24503","cid":"101050803"},"230711":{"city":"伊春","district":"乌马河","province":"黑龙江","lat":"47.72696","lng":"128.80295","cid":"101050813"},"230712":{"city":"伊春","district":"汤旺河","province":"黑龙江","lat":"48.45365","lng":"129.57224","cid":"101050814"},"230713":{"city":"伊春","district":"带岭","province":"黑龙江","lat":"47.02753","lng":"129.02115","cid":"101050815"},"230714":{"city":"伊春","district":"乌伊岭","province":"黑龙江","lat":"48.59112","lng":"129.43785","cid":"101050802"},"230715":{"city":"伊春","district":"红星","province":"黑龙江","lat":"48.23837","lng":"129.3888","cid":"101050816"},"230716":{"city":"伊春","district":"上甘岭","province":"黑龙江","lat":"47.974857","lng":"129.02509","cid":"101050817"},"230722":{"city":"伊春市","district":"嘉荫县","province":"黑龙江省","lat":"48.891376","lng":"130.39769","cid":"101050805"},"230781":{"city":"伊春市","district":"铁力市","province":"黑龙江省","lat":"46.98577","lng":"128.03056","cid":"101050804"},"230800":{"city":"佳木斯","district":"佳木斯","province":"黑龙江","lat":"46.809605","lng":"130.36163","cid":"101050401"},"230801":{"city":"佳木斯","district":"佳木斯","province":"黑龙江","lat":"46.809605","lng":"130.36163","cid":"101050401"},"230803":{"city":"佳木斯市","district":"向阳区","province":"黑龙江省","lat":"46.809647","lng":"130.36179","cid":"101050408"},"230804":{"city":"佳木斯市","district":"前进区","province":"黑龙江省","lat":"46.812344","lng":"130.37769","cid":"101050409"},"230805":{"city":"佳木斯市","district":"东风区","province":"黑龙江省","lat":"46.822475","lng":"130.40329","cid":"101050410"},"230811":{"city":"佳木斯市","district":"郊区","province":"黑龙江省","lat":"46.80712","lng":"130.3516","cid":"101050411"},"230822":{"city":"佳木斯市","district":"桦南县","province":"黑龙江省","lat":"46.240116","lng":"130.57011","cid":"101050405"},"230826":{"city":"佳木斯市","district":"桦川县","province":"黑龙江省","lat":"47.02304","lng":"130.72371","cid":"101050404"},"230828":{"city":"佳木斯市","district":"汤原县","province":"黑龙江省","lat":"46.73005","lng":"129.90446","cid":"101050402"},"230881":{"city":"佳木斯市","district":"同江市","province":"黑龙江省","lat":"47.65113","lng":"132.51012","cid":"101050406"},"230882":{"city":"佳木斯市","district":"富锦市","province":"黑龙江省","lat":"47.250748","lng":"132.03795","cid":"101050407"},"230883":{"city":"佳木斯市","district":"抚远市","province":"黑龙江省","lat":"48.364708","lng":"134.2945","cid":"101050403"},"230900":{"city":"七台河","district":"七台河","province":"黑龙江","lat":"45.771267","lng":"131.01558","cid":"101051002"},"230901":{"city":"七台河","district":"七台河","province":"黑龙江","lat":"45.771267","lng":"131.01558","cid":"101051002"},"230902":{"city":"七台河市","district":"新兴区","province":"黑龙江省","lat":"45.79426","lng":"130.88948","cid":"101051001"},"230903":{"city":"七台河市","district":"桃山区","province":"黑龙江省","lat":"45.771217","lng":"131.01585","cid":"101051004"},"230904":{"city":"七台河市","district":"茄子河区","province":"黑龙江省","lat":"45.77659","lng":"131.07156","cid":"101051005"},"230921":{"city":"七台河市","district":"勃利县","province":"黑龙江省","lat":"45.75157","lng":"130.57503","cid":"101051003"},"231000":{"city":"牡丹江","district":"牡丹江","province":"黑龙江","lat":"44.582962","lng":"129.6186","cid":"101050301"},"231001":{"city":"牡丹江","district":"牡丹江","province":"黑龙江","lat":"44.582962","lng":"129.6186","cid":"101050301"},"231002":{"city":"牡丹江市","district":"东安区","province":"黑龙江省","lat":"44.582397","lng":"129.62329","cid":"101050308"},"231003":{"city":"牡丹江市","district":"阳明区","province":"黑龙江省","lat":"44.59633","lng":"129.63464","cid":"101050309"},"231004":{"city":"牡丹江市","district":"爱民区","province":"黑龙江省","lat":"44.595444","lng":"129.60123","cid":"101050310"},"231005":{"city":"牡丹江市","district":"西安区","province":"黑龙江省","lat":"44.58103","lng":"129.61311","cid":"101050311"},"231025":{"city":"牡丹江市","district":"林口县","province":"黑龙江省","lat":"45.286644","lng":"130.2684","cid":"101050304"},"231081":{"city":"牡丹江市","district":"绥芬河市","province":"黑龙江省","lat":"44.396866","lng":"131.16486","cid":"101050305"},"231083":{"city":"牡丹江市","district":"海林市","province":"黑龙江省","lat":"44.57415","lng":"129.38791","cid":"101050302"},"231084":{"city":"牡丹江市","district":"宁安市","province":"黑龙江省","lat":"44.346836","lng":"129.47002","cid":"101050306"},"231085":{"city":"牡丹江市","district":"穆棱市","province":"黑龙江省","lat":"44.91967","lng":"130.52708","cid":"101050303"},"231086":{"city":"牡丹江市","district":"东宁市","province":"黑龙江省","lat":"44.06358","lng":"131.12529","cid":"101050307"},"231100":{"city":"黑河","district":"黑河","province":"黑龙江","lat":"50.249584","lng":"127.49902","cid":"101050601"},"231101":{"city":"黑河","district":"黑河","province":"黑龙江","lat":"50.249584","lng":"127.49902","cid":"101050601"},"231102":{"city":"黑河市","district":"爱辉区","province":"黑龙江省","lat":"50.249027","lng":"127.49764","cid":"101050607"},"231121":{"city":"黑河市","district":"嫩江市","province":"黑龙江省","lat":"49.17746","lng":"125.229904","cid":"101050602"},"231123":{"city":"黑河市","district":"逊克县","province":"黑龙江省","lat":"49.582973","lng":"128.47615","cid":"101050604"},"231124":{"city":"黑河市","district":"孙吴县","province":"黑龙江省","lat":"49.423943","lng":"127.32732","cid":"101050603"},"231181":{"city":"黑河市","district":"北安市","province":"黑龙江省","lat":"48.245438","lng":"126.508736","cid":"101050606"},"231182":{"city":"黑河市","district":"五大连池市","province":"黑龙江省","lat":"48.512688","lng":"126.19769","cid":"101050605"},"231200":{"city":"绥化","district":"绥化","province":"黑龙江","lat":"46.637394","lng":"126.99293","cid":"101050501"},"231201":{"city":"绥化","district":"绥化","province":"黑龙江","lat":"46.637394","lng":"126.99293","cid":"101050501"},"231202":{"city":"绥化市","district":"北林区","province":"黑龙江省","lat":"46.63491","lng":"126.99066","cid":"101050511"},"231221":{"city":"绥化市","district":"望奎县","province":"黑龙江省","lat":"46.83352","lng":"126.48419","cid":"101050506"},"231222":{"city":"绥化市","district":"兰西县","province":"黑龙江省","lat":"46.259037","lng":"126.289314","cid":"101050507"},"231223":{"city":"绥化市","district":"青冈县","province":"黑龙江省","lat":"46.686596","lng":"126.11227","cid":"101050508"},"231224":{"city":"绥化市","district":"庆安县","province":"黑龙江省","lat":"46.879204","lng":"127.510025","cid":"101050509"},"231225":{"city":"绥化市","district":"明水县","province":"黑龙江省","lat":"47.18353","lng":"125.90755","cid":"101050505"},"231226":{"city":"绥化市","district":"绥棱县","province":"黑龙江省","lat":"47.247196","lng":"127.11112","cid":"101050510"},"231281":{"city":"绥化市","district":"安达市","province":"黑龙江省","lat":"46.410614","lng":"125.329926","cid":"101050503"},"231282":{"city":"绥化市","district":"肇东市","province":"黑龙江省","lat":"46.06947","lng":"125.9914","cid":"101050502"},"231283":{"city":"绥化市","district":"海伦市","province":"黑龙江省","lat":"47.460426","lng":"126.96938","cid":"101050504"},"232700":{"city":"大兴安岭","district":"大兴安岭","province":"黑龙江","lat":"52.335262","lng":"124.711525","cid":"101050701"},"232701":{"city":"大兴安岭","district":"加格达奇","province":"黑龙江","lat":"50.408726","lng":"124.13959","cid":"101050708"},"232721":{"city":"大兴安岭地区","district":"呼玛县","province":"黑龙江省","lat":"51.67373","lng":"124.395004","cid":"101050706"},"232722":{"city":"大兴安岭地区","district":"塔河县","province":"黑龙江省","lat":"52.335228","lng":"124.71052","cid":"101050702"},"232723":{"city":"大兴安岭地区","district":"大兴安岭地区直辖","province":"黑龙江省","lat":"52.972073","lng":"122.536255","cid":"101050703"},"310000":{"city":"上海","district":"上海","province":"上海","lat":"31.231707","lng":"121.47264","cid":"101020100"},"310100":{"city":"上海","district":"上海","province":"上海","lat":"31.231707","lng":"121.47264","cid":"101020100"},"310101":{"city":"上海市","district":"黄浦区","province":"上海市","lat":"31.22277","lng":"121.49032","cid":"101020400"},"310104":{"city":"上海市","district":"徐汇区","province":"上海市","lat":"31.179974","lng":"121.43752","cid":"101021200"},"310105":{"city":"上海市","district":"长宁区","province":"上海市","lat":"31.218122","lng":"121.4222","cid":"101021300"},"310106":{"city":"上海市","district":"静安区","province":"上海市","lat":"31.229004","lng":"121.44823","cid":"101021400"},"310107":{"city":"上海市","district":"普陀区","province":"上海市","lat":"31.241701","lng":"121.3925","cid":"101021500"},"310109":{"city":"上海市","district":"虹口区","province":"上海市","lat":"31.26097","lng":"121.49183","cid":"101021600"},"310110":{"city":"上海市","district":"杨浦区","province":"上海市","lat":"31.270756","lng":"121.5228","cid":"101021700"},"310112":{"city":"上海市","district":"闵行区","province":"上海市","lat":"31.111658","lng":"121.37597","cid":"101020200"},"310113":{"city":"上海市","district":"宝山区","province":"上海市","lat":"31.398895","lng":"121.48994","cid":"101020300"},"310114":{"city":"上海市","district":"嘉定区","province":"上海市","lat":"31.383524","lng":"121.250336","cid":"101020500"},"310115":{"city":"上海市","district":"浦东新区","province":"上海市","lat":"31.245943","lng":"121.5677","cid":"101020600"},"310116":{"city":"上海市","district":"金山区","province":"上海市","lat":"30.724697","lng":"121.330734","cid":"101020700"},"310117":{"city":"上海市","district":"松江区","province":"上海市","lat":"31.03047","lng":"121.22354","cid":"101020900"},"310118":{"city":"上海市","district":"青浦区","province":"上海市","lat":"31.151209","lng":"121.11302","cid":"101020800"},"310120":{"city":"上海市","district":"奉贤区","province":"上海市","lat":"30.912346","lng":"121.45847","cid":"101021000"},"310151":{"city":"上海市","district":"崇明区","province":"上海市","lat":"31.626945","lng":"121.397514","cid":"101021100"},"320000":{"city":"南京","district":"南京","province":"江苏","lat":"32.041546","lng":"118.76741","cid":"101190101"},"320100":{"city":"南京","district":"南京","province":"江苏","lat":"32.041546","lng":"118.76741","cid":"101190101"},"320101":{"city":"南京","district":"南京","province":"江苏","lat":"32.041546","lng":"118.76741","cid":"101190101"},"320102":{"city":"南京市","district":"玄武区","province":"江苏省","lat":"32.05068","lng":"118.7922","cid":"101190108"},"320104":{"city":"南京市","district":"秦淮区","province":"江苏省","lat":"32.033817","lng":"118.78609","cid":"101190109"},"320105":{"city":"南京市","district":"建邺区","province":"江苏省","lat":"32.00454","lng":"118.73269","cid":"101190110"},"320106":{"city":"南京市","district":"鼓楼区","province":"江苏省","lat":"32.066967","lng":"118.76974","cid":"101190111"},"320111":{"city":"南京市","district":"浦口区","province":"江苏省","lat":"32.05839","lng":"118.625305","cid":"101190107"},"320113":{"city":"南京市","district":"栖霞区","province":"江苏省","lat":"32.102146","lng":"118.8087","cid":"101190112"},"320114":{"city":"南京市","district":"雨花台区","province":"江苏省","lat":"31.995947","lng":"118.77207","cid":"101190113"},"320115":{"city":"南京市","district":"江宁区","province":"江苏省","lat":"31.953419","lng":"118.850624","cid":"101190104"},"320116":{"city":"南京市","district":"六合区","province":"江苏省","lat":"32.340656","lng":"118.85065","cid":"101190105"},"320117":{"city":"南京市","district":"溧水区","province":"江苏省","lat":"31.65306","lng":"119.02873","cid":"101190102"},"320118":{"city":"南京市","district":"高淳区","province":"江苏省","lat":"31.327131","lng":"118.87589","cid":"101190103"},"320200":{"city":"无锡","district":"无锡","province":"江苏","lat":"31.57473","lng":"120.30167","cid":"101190201"},"320201":{"city":"无锡","district":"无锡","province":"江苏","lat":"31.57473","lng":"120.30167","cid":"101190201"},